TITLE,REGION,SPECIFIC REGION,DISTANCE,DIST_TYPE,GAIN,HIGHEST,RATING,RATING_COUNT,LATITUDE,LONGITUDE,MOST_RECENT_REPORT_DATE,REPORT_COUNT,COAST,RIVERS,LAKES,WATERFALLS,OLD GROWTH,FALL FOLIAGE,WILDFLOWERS/MEADOWS,MOUNTAIN VIEWS,SUMMITS,WILDLIFE,RIDGES,ESTABLISHED CAMPSITES,DOGS ALLOWED ON LEASH,NO DOGS,KID FRIENDLY,REQUIRED PASSES,URL
Sawtooth Ridge,Eastern Washington,Palouse and Blue Mountains,8,roundtrip,500,5500,2.67,3,46.06178361,-117.8441325,6/9/21 0:00,11,0,0,0,0,0,0,1,1,0,0,1,0,0,0,1,No pass,https://www.wta.org/go-hiking/hikes/sawtooth-ridge-blue-mtns
Rattlesnake Trail,Eastern Washington,Palouse and Blue Mountains,10,roundtrip,2900,5700,3.43,7,46.20433914,-117.7058244,11/7/21 0:00,26,0,0,0,0,0,0,1,1,1,0,1,1,1,0,0,No pass,https://www.wta.org/go-hiking/hikes/rattlesnake-trail
Oregon Butte,Eastern Washington,Palouse and Blue Mountains,6,roundtrip,987,6387,4.14,7,46.11833168,-117.7149653,6/5/21 0:00,50,0,0,0,0,0,0,1,1,1,1,1,1,1,0,0,Northwest Forest Pass,https://www.wta.org/go-hiking/hikes/oregon-butte
Mount Misery,Eastern Washington,Palouse and Blue Mountains,16,roundtrip,1000,6401,2.75,4,46.1182006,-117.7143596,5/31/21 0:00,28,0,0,0,0,0,0,1,1,1,1,1,1,1,0,1,Northwest Forest Pass,https://www.wta.org/go-hiking/hikes/mount-misery
Dexter Ridge,Eastern Washington,Palouse and Blue Mountains,5,one-way,2547,5500,0,0,46.02152219,-117.7900136,7/7/19 0:00,2,0,1,0,0,0,0,0,0,0,0,0,0,0,0,0,Northwest Forest Pass,https://www.wta.org/go-hiking/hikes/dexter-ridge
Middle Tie Trail,Eastern Washington,Palouse and Blue Mountains,1.6,one-way,1200,5400,0,0,46.0949,-117.8469,5/31/20 0:00,1,0,0,0,0,0,0,0,0,0,0,0,0,0,0,0,"Northwest Forest Pass, Sno-Parks Permit",https://www.wta.org/go-hiking/hikes/middle-tie-trail-3240-to-middle-point-ridge-trail-3116
Grizzly Bear Ridge - Wenaha River - Slick Ear Loop,Eastern Washington,Palouse and Blue Mountains,20,roundtrip,1300,5400,0,0,46.06380388,-117.8028339,5/31/21 0:00,6,0,0,0,0,0,0,1,1,0,0,0,0,0,0,1,Northwest Forest Pass,https://www.wta.org/go-hiking/hikes/grizzly-bear-ridge-3103
Crooked Creek,Eastern Washington,Palouse and Blue Mountains,17,one-way,3800,5700,3,4,46.15376009,-117.6511393,3/25/21 0:00,19,0,1,0,0,1,0,1,1,0,1,0,1,1,0,0,,https://www.wta.org/go-hiking/hikes/crooked-creek
Tucannon River - Rattlesnake Loop,Eastern Washington,Palouse and Blue Mountains,21,roundtrip,2700,,0,0,46.18901234,-117.619354,8/29/19 0:00,4,0,1,0,0,0,1,1,1,1,1,1,1,1,0,0,Northwest Forest Pass,https://www.wta.org/go-hiking/hikes/tucannon-river-rattlesnake-loop
Packer's Trail,Eastern Washington,Palouse and Blue Mountains,5.5,one-way,2600,4800,0,0,46.02233135,-117.5465816,6/11/16 0:00,1,0,1,0,0,0,0,1,1,0,0,1,0,1,0,0,Northwest Forest Pass,https://www.wta.org/go-hiking/hikes/packers-trail
Middle Point Ridge,Eastern Washington,Palouse and Blue Mountains,8,roundtrip,2648,5724,0,0,46.1359,-117.808667,6/16/21 0:00,24,0,0,0,0,0,0,0,1,0,1,1,0,0,0,0,,https://www.wta.org/go-hiking/hikes/middle-point-ridge
Three Forks,Eastern Washington,Palouse and Blue Mountains,6.6,roundtrip,3100,4700,0,0,,,5/24/20 0:00,3,0,1,0,0,0,0,1,1,0,0,0,0,1,0,0,Northwest Forest Pass,https://www.wta.org/go-hiking/hikes/three-forks-3133
Packers Trail - Mount Misery Loop,Eastern Washington,Palouse and Blue Mountains,45,roundtrip,9234,6387,0,0,46.1538,-117.6511,5/21/20 0:00,2,0,0,0,0,0,0,1,1,0,1,1,1,1,0,0,No pass,https://www.wta.org/go-hiking/hikes/packers-trail-mount-misery-loop
Turkey Creek,Eastern Washington,Palouse and Blue Mountains,8,roundtrip,2060,5300,4.25,4,,,7/23/19 0:00,11,0,1,0,0,1,1,0,0,0,1,0,0,1,0,0,Northwest Forest Pass,https://www.wta.org/go-hiking/hikes/turkey-creek
Tucannon River Canyon,Eastern Washington,Palouse and Blue Mountains,8,roundtrip,1200,3680,2.2,5,46.188583,-117.625317,5/31/21 0:00,17,0,1,0,0,0,0,0,0,0,1,0,0,0,0,0,Northwest Forest Pass,https://www.wta.org/go-hiking/hikes/tucannon-river
Third Creek,Eastern Washington,Palouse and Blue Mountains,34,roundtrip,2000,,0,0,46.0887778,-117.6276668,6/21/13 0:00,1,0,1,0,0,1,0,0,0,0,0,0,1,0,0,0,Northwest Forest Pass,https://www.wta.org/go-hiking/hikes/third-creek-3100
Table Rock,Eastern Washington,Palouse and Blue Mountains,1.2,roundtrip,400,6250,4.5,2,46.03041856,-117.9112753,6/13/21 0:00,7,0,0,0,0,0,0,0,1,1,0,0,0,1,0,0,No pass,https://www.wta.org/go-hiking/hikes/table-rock-squaw-peak
Smooth Ridge,Eastern Washington,Palouse and Blue Mountains,9.4,roundtrip,2540,6529,3.4,5,46.11291501,-117.7455482,6/15/21 0:00,14,0,1,0,0,0,0,0,1,0,0,1,0,1,0,0,Northwest Forest Pass,https://www.wta.org/go-hiking/hikes/smooth-ridge
Cathedral Rock,Snoqualmie Region,Salmon La Sac/Teanaway,8,roundtrip,2290,5550,3.43,14,47.5434644,-121.0969905,10/16/21 0:00,225,0,0,1,0,1,1,1,1,1,1,1,1,1,0,0,Northwest Forest Pass,https://www.wta.org/go-hiking/hikes/cathedral-rock
Big Creek Trail,Snoqualmie Region,Cle Elum Area,9,roundtrip,2400,3700,0,0,47.1844,-121.1373,9/19/21 0:00,3,0,1,0,0,1,0,0,0,0,0,0,0,0,0,0,No pass,https://www.wta.org/go-hiking/hikes/big-creek-trail
Taneum Lake,Snoqualmie Region,Cle Elum Area,1.4,roundtrip,100,5400,4,1,47.061798,-121.0306907,10/9/21 0:00,3,0,0,1,0,1,0,0,0,0,0,0,0,1,0,1,No pass,https://www.wta.org/go-hiking/hikes/taneum-lake
Manastash Ridge,Central Washington,Yakima,16.7,one-way,4600,6245,3.62,13,47.075206,-121.083096,5/21/21 0:00,74,0,0,0,0,0,0,1,1,1,1,1,0,1,0,0,Northwest Forest Pass,https://www.wta.org/go-hiking/hikes/manastash-ridge
Granite Creek,Snoqualmie Region,Cle Elum Area,5,roundtrip,2600,4600,0,0,47.161729,-121.091218,5/31/21 0:00,11,0,1,0,0,0,0,1,1,0,0,0,0,1,0,0,No pass,https://www.wta.org/go-hiking/hikes/granite-creek-1
Manastash Lake,Central Washington,Yakima,8,roundtrip,2100,5063,3.89,9,47.0248288,-120.9406422,10/16/21 0:00,82,0,0,1,0,0,1,1,0,0,1,0,1,1,0,1,Northwest Forest Pass,https://www.wta.org/go-hiking/hikes/manastash-lake
Keenan Meadows,Central Washington,Yakima,3.1,one-way,,,3.33,3,,,,0,0,0,0,0,0,0,0,0,0,0,0,0,1,0,0,Northwest Forest Pass,https://www.wta.org/go-hiking/hikes/keenen-meadow
Fishhook Flat,Snoqualmie Region,Cle Elum Area,,,,,1.25,4,,,10/26/18 0:00,3,0,0,0,0,0,0,0,0,0,0,0,0,0,0,0,,https://www.wta.org/go-hiking/hikes/fishhook-flat
Shoestring Lake,Central Washington,Yakima,3.6,one-way,,,0,0,,,6/17/17 0:00,1,0,0,0,0,0,0,0,0,0,0,0,0,1,0,0,Northwest Forest Pass,https://www.wta.org/go-hiking/hikes/shoestring-lake-1385
Taneum Ridge,Snoqualmie Region,Cle Elum Area,12.1,one-way,3200,6080,3.5,4,47.1112943,-120.9359926,5/24/21 0:00,11,0,0,0,0,0,0,1,1,1,0,1,0,1,0,0,Northwest Forest Pass,https://www.wta.org/go-hiking/hikes/taneum-ridge
Angel's Rest-Devil's Rest Loop,Southwest Washington,Columbia River Gorge - OR,10.7,roundtrip,2770,2308,5,1,45.56026303,-122.1725821,10/10/19 0:00,11,0,1,0,1,0,0,0,0,1,0,0,0,1,0,0,No pass,https://www.wta.org/go-hiking/hikes/angels-rest-devils-rest
Siouxon Peak Loop,South Cascades,Dark Divide,15.3,roundtrip,5120,4170,0,0,45.9429912,-122.1853816,5/4/19 0:00,6,0,1,0,1,0,0,0,0,1,0,0,0,1,0,0,Northwest Forest Pass,https://www.wta.org/go-hiking/hikes/siouxon-peak-loop
Hells Basin,North Cascades,,,,,,4.25,4,,,9/5/21 0:00,1,0,0,0,0,0,0,0,0,0,0,0,0,0,0,0,,https://www.wta.org/go-hiking/hikes/hells-basin
Hereford Meadows,South Cascades,,,,,,3.5,4,,,10/4/21 0:00,1,0,0,0,0,0,0,0,0,0,0,0,0,0,0,0,,https://www.wta.org/go-hiking/hikes/hereford-meadows
Heather Lake Snowshoe,North Cascades,Mountain Loop Highway,4.6,roundtrip,1100,2440,3.67,9,48.0829067,-121.7740047,2/27/21 0:00,101,0,0,1,1,1,0,0,1,0,0,0,0,0,0,1,Northwest Forest Pass,https://www.wta.org/go-hiking/hikes/heather-lake-snowshoe
Hikers Trail,South Cascades,,,,,,3.5,4,,,,0,0,0,0,0,0,0,0,0,0,0,0,0,0,0,0,,https://www.wta.org/go-hiking/hikes/hikers-trail
Hogsback Route,North Cascades,,,,,,3,4,,,,0,0,0,0,0,0,0,0,0,0,0,0,0,0,0,0,,https://www.wta.org/go-hiking/hikes/hogsback-route
High Bridge,South Cascades,,,,,,3.8,5,,,5/23/20 0:00,5,0,0,0,0,0,0,0,0,0,0,0,0,0,0,0,,https://www.wta.org/go-hiking/hikes/high-bridge
Hindoo,South Cascades,,,,,,4.5,4,,,7/4/16 0:00,2,0,0,0,0,0,0,0,0,0,0,0,0,0,0,0,,https://www.wta.org/go-hiking/hikes/hindoo
Heather Basin,Olympic Peninsula,Hood Canal,,,,,2.8,5,,,8/7/20 0:00,9,0,0,0,0,0,0,0,0,0,0,0,0,0,0,0,,https://www.wta.org/go-hiking/hikes/heather-basin
Grassy Point,North Cascades,Mountain Loop Highway,,,,,2.25,4,,,9/26/18 0:00,8,0,0,0,0,0,0,0,0,0,0,0,0,0,0,0,,https://www.wta.org/go-hiking/hikes/grassy-point
Gold Run Pass,North Cascades,,,,,,3.67,6,,,7/14/17 0:00,1,0,0,0,0,0,0,0,0,0,0,0,0,0,0,0,,https://www.wta.org/go-hiking/hikes/gold-run-pass
Grant Purcell Falls,South Cascades,,,,,,3.67,6,46.67074604,-121.5874958,8/30/20 0:00,5,0,0,0,0,0,0,0,0,0,0,0,0,0,0,0,,https://www.wta.org/go-hiking/hikes/grant-purcell-falls
Gold Creek,Central Washington,Yakima,,,,,3.7,10,46.96101747,-121.0072031,6/19/21 0:00,14,0,0,0,0,0,0,0,0,0,0,0,0,0,0,0,,https://www.wta.org/go-hiking/hikes/gold-creek-2
Gooseberry Flat,Snoqualmie Region,,,,,,3,4,,,3/21/20 0:00,1,0,0,0,0,0,0,0,0,0,0,0,0,0,0,0,,https://www.wta.org/go-hiking/hikes/gooseberry-flat
Gold Creek,Olympic Peninsula,Hood Canal,,,,,3,6,47.9426,-123.0951167,6/4/21 0:00,38,0,0,0,0,0,0,0,0,0,0,0,0,0,0,0,,https://www.wta.org/go-hiking/hikes/gold-creek
Grand Pass,Olympic Peninsula,Northern Coast,,,,,3.71,7,47.91795463,-123.3756623,9/14/21 0:00,66,0,0,0,0,0,0,0,0,0,0,0,0,0,0,0,,https://www.wta.org/go-hiking/hikes/grand-pass
Hamilton Peak,South Cascades,,,,,,3.25,4,,,8/23/09 0:00,2,0,0,0,0,0,0,0,0,0,0,0,0,0,0,0,,https://www.wta.org/go-hiking/hikes/hamilton-peak
Greenwood Lake,South Cascades,,,,,,2.83,6,46.66640412,-121.8913284,8/22/21 0:00,10,0,0,0,0,0,0,0,0,0,0,0,0,0,0,0,,https://www.wta.org/go-hiking/hikes/greenwood-lake
Hamilton Buttes,South Cascades,Dark Divide,2,roundtrip,700,5722,3,4,46.39111667,-121.6179,9/8/18 0:00,5,0,0,0,0,0,0,0,1,0,0,0,0,0,0,0,Northwest Forest Pass,https://www.wta.org/go-hiking/hikes/hamilton-buttes
Goose Prairie,South Cascades,,,,,,4,5,,,7/25/20 0:00,11,0,0,0,0,0,0,0,0,0,0,0,0,0,0,0,,https://www.wta.org/go-hiking/hikes/goose-prairie
Gold Ridge,Central Cascades,,,,,,2,4,,,,0,0,0,0,0,0,0,0,0,0,0,0,0,0,0,0,,https://www.wta.org/go-hiking/hikes/gold-ridge
Greek Creek Basin,South Cascades,,,,,,3.5,4,,,9/9/02 0:00,1,0,0,0,0,0,0,0,0,0,0,0,0,0,0,0,,https://www.wta.org/go-hiking/hikes/greek-creek-basin
Goat Ridge,South Cascades,,,,,,3.12,8,46.46686667,-121.5265,10/2/21 0:00,76,0,0,0,0,0,0,0,0,0,0,0,0,0,0,0,,https://www.wta.org/go-hiking/hikes/goat-ridge
Gillette Ridge,Eastern Washington,,,,,,2,4,48.65848456,-117.7662277,6/30/20 0:00,4,0,0,0,0,0,0,0,0,0,0,0,0,0,0,0,,https://www.wta.org/go-hiking/hikes/gillette-ridge
Glacier Creek,Central Cascades,Stevens Pass - East,,,,,3.25,4,47.68976702,-120.7374115,7/5/12 0:00,3,0,0,0,0,0,0,0,0,0,0,0,0,0,0,0,,https://www.wta.org/go-hiking/hikes/glacier-creek
Fortune Creek-Van Epps,Snoqualmie Region,Salmon La Sac/Teanaway,,,,,1.5,4,47.4787395,-121.0019441,7/14/20 0:00,12,0,0,0,0,0,0,0,0,0,0,0,0,0,0,0,,https://www.wta.org/go-hiking/hikes/fortune-creek-van-epps
Gatton Creek,Olympic Peninsula,,,,,,2,5,,,3/29/21 0:00,5,0,0,0,0,0,0,0,0,0,0,0,0,0,0,0,,https://www.wta.org/go-hiking/hikes/gatton-creek
French Creek,Southwest Washington,Lewis River Region,7,roundtrip,700,3800,3,4,46.27781667,-121.79425,9/3/09 0:00,2,0,1,0,0,0,0,0,0,0,1,0,0,0,0,0,Northwest Forest Pass,https://www.wta.org/go-hiking/hikes/french-creek
French Ridge,Central Cascades,Leavenworth Area,,,,,2.6,5,47.61337176,-120.9497309,7/1/21 0:00,11,0,0,0,0,0,0,0,0,0,0,0,0,0,0,0,,https://www.wta.org/go-hiking/hikes/french-ridge
Glacier Peak,Central Cascades,,,,,,3.62,8,48.057843,-121.28821,9/4/21 0:00,63,0,0,0,0,0,0,0,0,0,0,0,0,0,0,0,,https://www.wta.org/go-hiking/hikes/glacier-peak
French Butte,South Cascades,,,,,,2,4,,,,0,0,0,0,0,0,0,0,0,0,0,0,0,0,0,0,,https://www.wta.org/go-hiking/hikes/french-butte
Skagit-Sauk Reach Trail,North Cascades,North Cascades Highway - Hwy 20,8,roundtrip,,300,0,0,48.48425392,-121.5960803,5/31/21 0:00,29,0,1,0,0,0,0,0,1,0,1,0,0,1,0,1,No pass,https://www.wta.org/go-hiking/hikes/skagit-sauk-reach-trail
Meadowdale Beach Park - Lunds Gulch,Puget Sound and Islands,Seattle-Tacoma Area,2.5,roundtrip,425,425,3.69,32,47.85583333,-122.3175167,8/27/21 0:00,227,1,1,0,0,0,0,0,1,0,0,0,0,1,0,0,No pass,https://www.wta.org/go-hiking/hikes/lunds-gulch-meadowdale-county-park
Mount Finlayson,Puget Sound and Islands,San Juan Islands,3.6,roundtrip,408,290,4.33,9,48.4637,-122.999117,7/12/21 0:00,27,1,0,0,0,0,0,1,0,1,1,0,0,1,0,1,No pass,https://www.wta.org/go-hiking/hikes/mount-finlayson
Bessemer Mountain,Snoqualmie Region,North Bend Area,13,roundtrip,4100,5028,3.18,11,47.51588333,-121.6134167,9/21/21 0:00,106,0,0,0,0,0,0,0,0,0,0,0,0,0,0,0,Discover Pass,https://www.wta.org/go-hiking/hikes/bessemer-mountain
Red Mountain (Commonwealth Basin),Snoqualmie Region,Snoqualmie Pass,8,roundtrip,2900,5890,3.64,11,47.4278288,-121.4134415,10/2/21 0:00,360,0,0,0,0,0,0,1,1,1,0,0,0,0,0,0,Northwest Forest Pass,https://www.wta.org/go-hiking/hikes/red-mountain-1
Imus Creek Trail,Central Cascades,Entiat Mountains/Lake Chelan,0.7,one-way,150,1340,0,0,,,10/2/21 0:00,5,0,0,0,1,0,1,0,1,0,0,0,0,0,1,1,No pass,https://www.wta.org/go-hiking/hikes/imus-creek-trail
Northwest Mox Peak,North Cascades,,,,,8407,0,0,48.948747,-121.262656,6/30/15 0:00,1,0,0,0,0,0,0,1,1,1,0,0,0,0,0,0,,https://www.wta.org/go-hiking/hikes/mox-peaks-northwest-peak
Southeast Mox Peak,North Cascades,,15,one-way,7400,8504,0,0,48.947222,-121.256945,6/30/15 0:00,1,0,0,0,0,0,0,1,1,1,0,1,0,0,0,0,,https://www.wta.org/go-hiking/hikes/mox-peaks-southeast-peak
Mount Redoubt,North Cascades,,,,,8956,0,0,48.9551304,-121.3867686,6/30/15 0:00,1,0,0,0,0,0,0,1,1,1,0,0,0,0,0,0,No pass,https://www.wta.org/go-hiking/hikes/mount-redoubt
Mount Rahm,North Cascades,,,,,8480,0,0,48.9977,-121.2306,6/30/15 0:00,1,0,0,0,0,0,0,0,0,0,0,0,0,0,0,0,No pass,https://www.wta.org/go-hiking/hikes/mount-rahm
Mount Spickard,North Cascades,,,,,8979,0,0,48.9698,-121.2406,6/30/15 0:00,1,0,0,0,0,0,0,1,1,1,0,1,0,0,0,0,No pass,https://www.wta.org/go-hiking/hikes/mount-spickard
Mount Formidable,North Cascades,,20,roundtrip,6100,8325,0,0,48.416177,-121.067504,5/30/15 0:00,1,0,0,0,0,0,0,0,1,1,0,0,0,0,0,0,,https://www.wta.org/go-hiking/hikes/mount-formidable
North Fork Bridge Creek,Central Cascades,Entiat Mountains/Lake Chelan,6.5,one-way,1473,4099,3.33,3,48.461381,-120.839744,9/3/20 0:00,9,0,1,1,1,0,0,1,1,0,1,0,1,0,1,0,Northwest Forest Pass,https://www.wta.org/go-hiking/hikes/north-fork-bridge-creek
Agnes Gorge,Central Cascades,Entiat Mountains/Lake Chelan,5.5,roundtrip,300,2000,3,5,48.38073333,-120.8402833,7/6/20 0:00,18,0,1,0,0,0,1,1,1,0,1,0,0,0,1,1,No pass,https://www.wta.org/go-hiking/hikes/agnes-gorge
Granite Mountain (Mount Baker),North Cascades,Mount Baker Area,,,,,0,0,47.39784897,-121.4865696,9/27/18 0:00,15,0,0,0,0,0,0,0,1,1,0,0,0,0,1,0,Northwest Forest Pass,https://www.wta.org/go-hiking/hikes/granite-mountain-mount-baker
Upper Stehekin Valley Road Trail,Central Cascades,Entiat Mountains/Lake Chelan,11.4,one-way,1100,2400,0,0,48.38072376,-120.8403095,10/9/20 0:00,18,0,1,0,1,1,1,1,1,0,0,0,1,0,1,0,No pass,https://www.wta.org/go-hiking/hikes/upper-stehekin-valley-road-trail
Rainbow Falls Mist Trail,Central Cascades,Entiat Mountains/Lake Chelan,0.25,roundtrip,30,1200,0,0,48.34221266,-120.7012638,10/9/20 0:00,9,0,0,0,1,1,1,0,0,0,0,0,0,0,1,1,No pass,https://www.wta.org/go-hiking/hikes/rainbow-falls-mist-trail
Howard Lake,Central Cascades,Entiat Mountains/Lake Chelan,3.3,roundtrip,600,2180,2.33,3,48.38006667,-120.8375667,8/11/20 0:00,4,0,0,1,0,1,1,0,1,0,1,0,0,0,1,1,No pass,https://www.wta.org/go-hiking/hikes/howard-lake
Goode Ridge,Central Cascades,Entiat Mountains/Lake Chelan,10,roundtrip,4400,6600,3.5,6,48.43260241,-120.8810577,7/26/18 0:00,5,0,0,0,0,0,0,0,1,0,1,1,0,0,1,0,No pass,https://www.wta.org/go-hiking/hikes/goode-ridge
Buckner Orchard Walk,Central Cascades,Entiat Mountains/Lake Chelan,1.6,roundtrip,,1200,0,0,48.34048286,-120.7024781,10/9/20 0:00,1,0,1,0,0,0,0,1,1,0,0,0,0,0,1,1,No pass,https://www.wta.org/go-hiking/hikes/buckner-orchard-walk
Stehekin River Trail,Central Cascades,Entiat Mountains/Lake Chelan,7.6,roundtrip,100,1200,4,4,48.34914777,-120.7223654,8/19/21 0:00,4,0,1,1,0,0,1,0,1,0,1,0,1,0,1,1,No pass,https://www.wta.org/go-hiking/hikes/stehekin-river-trail
Possession Point State Park,Puget Sound and Islands,Whidbey Island,3,roundtrip,,,4,2,47.90741051,-122.3773527,9/15/21 0:00,10,1,0,0,0,0,0,0,0,0,1,0,0,0,0,1,Discover Pass,https://www.wta.org/go-hiking/hikes/dorothy-cleveland-trail
Ancient Lakes,Central Washington,Potholes Region,12,roundtrip,625,1200,4.08,62,47.15186675,-119.9222913,9/19/21 0:00,522,0,0,1,1,0,0,1,0,0,1,0,1,1,0,1,Discover Pass,https://www.wta.org/go-hiking/hikes/ancient-lakes
Dingford Creek-Myrtle Lake,Snoqualmie Region,North Bend Area,11,roundtrip,2600,3800,3.64,11,47.5172007,-121.4552307,8/19/21 0:00,91,0,1,1,0,1,0,1,1,0,0,0,1,1,0,0,Northwest Forest Pass,https://www.wta.org/go-hiking/hikes/dingford-creek-myrtle-lake
Windy Peak,North Cascades,Pasayten,11.5,one-way,,,4,5,48.85548,-119.94525,10/23/21 0:00,24,0,0,0,0,0,1,0,0,1,0,1,0,1,0,0,Northwest Forest Pass,https://www.wta.org/go-hiking/hikes/windy-peak
Rocky Top and Cowiche Mountain,Central Washington,Yakima,20,trails,1148,2970,4,1,46.62777712,-120.6836531,10/29/21 0:00,30,0,0,0,0,0,0,1,1,0,1,1,0,1,0,1,No pass,https://www.wta.org/go-hiking/hikes/rocky-top
Wright Mountain,Snoqualmie Region,Snoqualmie Pass,11.4,roundtrip,,5430,4.22,9,47.44560433,-121.423529,10/19/21 0:00,109,0,0,1,0,0,0,0,1,1,0,0,0,0,0,0,Northwest Forest Pass,https://www.wta.org/go-hiking/hikes/wright-mountain
Lake Stuart,Central Cascades,Leavenworth Area,9,roundtrip,1665,5065,3.87,23,47.5277,-120.8209833,10/21/21 0:00,357,0,0,1,0,1,0,0,1,0,0,0,1,0,1,0,Northwest Forest Pass,https://www.wta.org/go-hiking/hikes/lake-stuart
Iron Bear - Teanaway Ridge,Central Cascades,Blewett Pass,6.5,roundtrip,1900,5489,4,37,47.35572395,-120.7176232,11/6/21 0:00,520,0,0,0,0,0,0,1,1,0,0,1,0,1,0,0,No pass,https://www.wta.org/go-hiking/hikes/iron-bear
Spider Gap - Buck Creek Pass Loop,Central Cascades,Stevens Pass - East,44,roundtrip,7200,7100,4.29,14,48.0673919,-120.8406278,10/3/21 0:00,138,0,0,1,0,0,1,1,1,0,1,1,1,0,0,0,Northwest Forest Pass,https://www.wta.org/go-hiking/hikes/spider-gap-buck-creek-pass-loop
Batey-Bould,Eastern Washington,,38.2,roundtrip,2000,4400,2.75,4,48.37111111,-117.3722222,2/15/18 0:00,1,0,0,0,0,0,0,1,1,0,1,0,0,0,0,0,No pass,https://www.wta.org/go-hiking/hikes/batey-bould
Grassy Top,Eastern Washington,Selkirk Range,7.6,roundtrip,1000,,3,4,48.79701248,-117.1320462,8/15/19 0:00,6,0,0,1,0,1,1,1,1,1,1,0,0,1,0,0,No pass,https://www.wta.org/go-hiking/hikes/grassy-top
Hidden Lake (Lake Wenatchee),Central Cascades,Stevens Pass - East,1.6,roundtrip,220,2320,3.4,15,47.82163333,-120.8063833,10/15/21 0:00,97,0,0,1,0,1,0,0,0,0,0,0,1,0,0,1,Northwest Forest Pass,https://www.wta.org/go-hiking/hikes/hidden-lake-lake-wenatchee
Wildside Trail-De Leo Wall,Issaquah Alps,Cougar Mountain,4.2,roundtrip,489,1122,2.74,19,47.53483333,-122.1288,5/5/21 0:00,177,0,0,0,0,0,0,1,1,0,1,0,0,1,0,1,No pass,https://www.wta.org/go-hiking/hikes/wildside-trail-de-leo-wall
Yakima Greenway,Central Washington,Yakima,10,roundtrip,100,1130,3.75,4,46.62495492,-120.5322397,2/13/20 0:00,6,0,1,1,0,0,1,0,1,0,1,0,0,1,0,1,No pass,https://www.wta.org/go-hiking/hikes/yakima-greenway
Windy Pass,North Cascades,Pasayten,7,roundtrip,1300,6900,3.71,14,48.73215,-120.6751167,10/3/21 0:00,58,0,0,0,0,0,0,1,1,0,0,1,0,1,0,1,Northwest Forest Pass,https://www.wta.org/go-hiking/hikes/windy-pass
Wolf Creek,Olympic Peninsula,Northern Coast,16.2,roundtrip,3800,5100,3,4,47.97040481,-123.5036445,8/22/21 0:00,12,0,1,0,0,0,1,0,1,0,1,0,0,0,1,0,National Park Pass,https://www.wta.org/go-hiking/hikes/wolf-creek-1
White Mountain via Kettle Crest Trail South,Eastern Washington,Okanogan Highlands/Kettle River Range,28,roundtrip,1500,6921,3.2,5,48.60737639,-118.4781075,5/23/20 0:00,8,0,0,0,0,0,0,0,1,1,0,0,0,1,0,0,Northwest Forest Pass,https://www.wta.org/go-hiking/hikes/white-mountain
West Fork Buttermilk,North Cascades,Methow/Sawtooth,15,roundtrip,3615,7480,3.25,4,48.31111497,-120.336771,10/3/21 0:00,25,0,1,0,0,0,1,0,1,0,0,0,1,1,0,0,Northwest Forest Pass,https://www.wta.org/go-hiking/hikes/west-fork-buttermilk-river
Wild Horses Monument,Central Washington,Yakima,0.4,roundtrip,150,1300,2.33,6,46.9645655,-119.9642694,9/19/21 0:00,27,0,1,0,0,0,0,1,0,0,0,0,0,0,0,0,,https://www.wta.org/go-hiking/hikes/wild-horses-monument
West Fork Dosewallips River,Olympic Peninsula,Hood Canal,15.8,roundtrip,2400,3600,4.33,6,47.7434265,-123.2032514,9/2/21 0:00,79,0,1,0,1,1,1,1,1,0,0,0,1,0,1,0,No pass,https://www.wta.org/go-hiking/hikes/west-fork-dosewallips-river
West Fork Pasayten River,North Cascades,Pasayten,33,roundtrip,2400,7200,3.75,4,48.7337925,-120.6751729,8/14/20 0:00,14,0,1,0,0,0,0,1,1,0,0,1,1,0,0,0,Northwest Forest Pass,https://www.wta.org/go-hiking/hikes/west-fork-pasayten-river
West Fork Methow River,North Cascades,Methow/Sawtooth,15.8,roundtrip,1600,4280,3.6,5,48.6515,-120.5623,10/5/21 0:00,33,0,1,0,0,0,0,1,0,0,1,0,0,1,0,0,No pass,https://www.wta.org/go-hiking/hikes/west-fork-methow-river
Frosty - Wildhorse Creek,Central Cascades,Stevens Pass - East,,,,,3.75,4,,,9/4/21 0:00,81,0,1,1,0,1,1,1,1,1,1,1,1,0,0,0,Northwest Forest Pass,https://www.wta.org/go-hiking/hikes/wildhorse-creek
Wilson Creek,Central Cascades,Entiat Mountains/Lake Chelan,2.1,one-way,,,2.75,4,,,9/19/19 0:00,2,0,1,0,0,0,1,0,0,0,0,1,0,1,0,0,No pass,https://www.wta.org/go-hiking/hikes/wilson-creek
Upper Lake Mills,Olympic Peninsula,Northern Coast,0.8,roundtrip,400,,2.6,5,47.97287538,-123.5883375,9/15/17 0:00,9,0,1,0,0,0,0,0,0,0,0,0,0,0,1,0,National Park Pass,https://www.wta.org/go-hiking/hikes/upper-lake-mills
Upper Mad River Trail,Central Cascades,Entiat Mountains/Lake Chelan,12.2,one-way,,,2,4,47.84101581,-120.6045333,10/3/20 0:00,19,0,1,1,0,0,0,0,1,0,0,1,0,1,0,0,,https://www.wta.org/go-hiking/hikes/upper-mad-river
Upper Roaring Creek,Central Cascades,Stevens Pass - East,3,roundtrip,,6050,2.5,4,47.751,-120.894,9/24/21 0:00,4,0,0,1,0,0,1,0,1,0,0,0,1,1,0,0,No pass,https://www.wta.org/go-hiking/hikes/upper-roaring-creek
Trout Creek,Central Cascades,Stevens Pass - West,3,roundtrip,500,1400,3.67,6,47.8757746,-121.4609644,7/18/21 0:00,33,0,1,0,1,0,1,0,0,0,1,0,0,0,0,1,Northwest Forest Pass,https://www.wta.org/go-hiking/hikes/trout-creek
Turnbull National Wildlife Refuge,Eastern Washington,Spokane Area/Coeur d'Alene,5.5,roundtrip,,2300,3.62,8,47.4168332,-117.5311128,9/15/20 0:00,20,0,0,1,0,0,1,1,0,0,1,0,0,1,0,1,Refuge Entrance Pass,https://www.wta.org/go-hiking/hikes/turnbull-national-wildlife-refuge
Tunnel Creek,Central Cascades,Stevens Pass - West,1.6,one-way,1300,4400,3.67,6,47.70942256,-121.1065382,9/14/21 0:00,87,0,0,1,1,0,0,1,0,0,0,0,0,1,0,0,No pass,https://www.wta.org/go-hiking/hikes/tunnel-creek
Twin Lakes (Wenatchee),Central Cascades,Stevens Pass - East,6,roundtrip,1000,2850,3,8,47.92053333,-120.8948833,9/21/21 0:00,134,0,1,1,0,1,0,0,1,0,0,0,1,1,0,0,Northwest Forest Pass,https://www.wta.org/go-hiking/hikes/twin-lakes-1
Trout Creek,North Cascades,Pasayten,5.4,roundtrip,800,5420,2,3,48.69828333,-120.6367833,7/4/19 0:00,1,0,0,0,0,0,0,1,1,0,0,0,0,0,0,0,,https://www.wta.org/go-hiking/hikes/trout-creek-1
Triad Creek,North Cascades,Mountain Loop Highway,4,one-way,2755,5807,2.5,4,48.13281372,-121.001721,7/19/18 0:00,2,0,1,0,0,1,0,1,0,0,0,0,0,0,0,0,Northwest Forest Pass,https://www.wta.org/go-hiking/hikes/triad-creek
Escure Ranch - Towell Falls,Central Washington,Potholes Region,6.4,roundtrip,530,1565,3.88,8,47.014267,-117.94355,5/2/21 0:00,45,0,0,0,1,0,0,1,0,0,1,0,0,1,0,1,No pass,https://www.wta.org/go-hiking/hikes/towell-falls
Trap Pass,Central Cascades,Stevens Pass - West,11.4,roundtrip,2700,5800,2.83,6,47.70931361,-121.1065596,9/13/21 0:00,51,0,0,1,1,0,0,1,1,0,0,1,0,0,0,0,No pass,https://www.wta.org/go-hiking/hikes/trap-pass
Tenmile Falls,Central Cascades,Entiat Mountains/Lake Chelan,5.4,roundtrip,1300,4600,2.5,4,48.199807,-120.7745483,6/12/19 0:00,8,0,0,0,1,0,0,1,1,0,1,0,0,1,0,1,No pass,https://www.wta.org/go-hiking/hikes/ten-mile
Tomyhoi Lake,North Cascades,Mount Baker Area,8,roundtrip,1800,5400,2.38,8,48.94353113,-121.6625118,8/17/20 0:00,24,0,0,1,0,0,0,1,1,0,1,1,0,0,0,0,Northwest Forest Pass,https://www.wta.org/go-hiking/hikes/tomyhoi-lake
Top Lake,Central Cascades,Leavenworth Area,10.4,roundtrip,1500,5200,2.5,6,47.88020372,-121.0791206,8/14/21 0:00,35,0,0,1,0,0,0,1,1,0,0,0,1,1,0,0,No pass,https://www.wta.org/go-hiking/hikes/top-lake
Tomyhoi Peak,North Cascades,Mount Baker Area,6.5,roundtrip,2000,,3.88,8,48.9435875,-121.661911,7/18/21 0:00,37,0,0,0,0,0,0,0,0,0,0,0,0,0,0,0,Northwest Forest Pass,https://www.wta.org/go-hiking/hikes/tomyhoi-peak
Silver Forest - Emmons Vista,Mount Rainier Area,NE - Sunrise/White River,2.5,roundtrip,325,6400,3.86,7,46.91407334,-121.6418423,9/5/21 0:00,35,0,0,0,0,0,0,1,1,0,0,0,0,0,1,1,National Park Pass,https://www.wta.org/go-hiking/hikes/silver-forest-emmons-vista
Deception Falls National Recreation Area,Central Cascades,Stevens Pass - West,0.5,roundtrip,50,,3.76,17,47.7146,-121.1934333,10/31/21 0:00,102,0,0,0,1,1,0,0,0,0,0,0,0,0,0,1,No pass,https://www.wta.org/go-hiking/hikes/deception-falls-nra
Baker Lake - Maple Grove,North Cascades,Mount Baker Area,8,roundtrip,500,1000,3.86,14,48.64561313,-121.674614,10/30/21 0:00,331,0,0,1,0,0,0,0,0,0,0,0,1,1,0,1,Northwest Forest Pass,https://www.wta.org/go-hiking/hikes/baker-lake-maple-grove
Alpine Lookout,Central Cascades,Stevens Pass - East,10,roundtrip,2600,6235,3.6,10,47.79226667,-120.79445,9/26/21 0:00,114,0,0,0,0,0,0,1,1,0,1,1,0,1,0,0,Northwest Forest Pass,https://www.wta.org/go-hiking/hikes/alpine-lakes-high-route
High Divide - Seven Lakes Basin Loop,Olympic Peninsula,Northern Coast,19,roundtrip,4000,5120,4.53,30,47.9506422,-123.815197,10/13/21 0:00,310,0,1,1,0,0,0,0,1,0,1,0,1,0,1,0,National Park Pass,https://www.wta.org/go-hiking/hikes/seven-lakes-basin
Bridal Veil Falls,Central Cascades,Stevens Pass - West,4,roundtrip,1000,1600,3.99,68,47.80919243,-121.5739748,10/22/21 0:00,596,0,0,0,1,0,0,0,1,0,0,0,0,1,0,1,Northwest Forest Pass,https://www.wta.org/go-hiking/hikes/bridal-veil-falls
Eightmile Lake,Central Cascades,Leavenworth Area,6.6,roundtrip,1300,4650,3.68,28,47.53596667,-120.8139,10/26/21 0:00,370,0,1,1,0,1,0,1,1,0,0,0,0,0,1,0,Northwest Forest Pass,https://www.wta.org/go-hiking/hikes/eightmile-lake
Wilderness Peak Loop,Issaquah Alps,Cougar Mountain,4,roundtrip,1200,1598,3.09,32,47.50931654,-122.0903778,11/8/21 0:00,298,0,0,0,1,1,1,1,0,1,1,1,0,1,0,1,No pass,https://www.wta.org/go-hiking/hikes/wilderness-peak
Lundin Peak,Snoqualmie Region,Snoqualmie Pass,7.6,roundtrip,2900,6057,4,3,47.428029,-121.413413,10/16/21 0:00,53,0,0,0,0,0,0,1,1,1,0,1,0,0,0,0,Northwest Forest Pass,https://www.wta.org/go-hiking/hikes/lundin-peak-trail
Columbia Mountain,Eastern Washington,Okanogan Highlands/Kettle River Range,5.4,roundtrip,3348,6565,5,1,48.65928538,-118.8587826,10/18/21 0:00,22,0,0,0,0,0,0,1,1,1,0,0,0,1,0,0,No pass,https://www.wta.org/go-hiking/hikes/columbia-mountain
North Creek Park Boardwalk,Puget Sound and Islands,Seattle-Tacoma Area,2,roundtrip,,,3.2,10,47.83275993,-122.2190379,8/28/21 0:00,115,0,0,0,0,0,0,0,0,0,1,0,0,1,0,1,No pass,https://www.wta.org/go-hiking/hikes/north-creek-park-boardwalk
Lena Lake,Olympic Peninsula,Hood Canal,7.2,roundtrip,1300,2000,4.11,88,47.59973333,-123.1511833,11/7/21 0:00,969,0,0,1,1,1,0,1,1,0,0,0,1,1,0,1,Northwest Forest Pass,https://www.wta.org/go-hiking/hikes/lena-lake
Nooksack Cirque,North Cascades,Mount Baker Area,9,roundtrip,640,2840,3.25,8,48.88988333,-121.6749167,8/12/21 0:00,65,0,0,0,0,1,0,0,1,0,0,0,0,1,0,0,No pass,https://www.wta.org/go-hiking/hikes/nooksack-cirque
Deer Park to Maiden Peak,Olympic Peninsula,Northern Coast,7.2,roundtrip,2100,6200,4.67,6,47.94967675,-123.264753,9/25/21 0:00,80,0,0,0,0,0,1,1,1,1,1,1,1,0,0,0,National Park Pass,https://www.wta.org/go-hiking/hikes/deer-park-to-maiden-peak
Cape Alava,Olympic Peninsula,Pacific Coast,6.2,roundtrip,100,350,3.55,11,48.15369715,-124.6687281,10/23/21 0:00,86,1,1,0,0,0,0,0,0,0,1,0,1,0,1,1,National Park Pass,https://www.wta.org/go-hiking/hikes/cape-alava
Circle Peak,North Cascades,Mountain Loop Highway,16,roundtrip,2800,5983,1.8,5,48.22338605,-121.3500881,8/29/21 0:00,34,0,0,0,0,0,0,1,1,1,0,1,0,0,0,0,Northwest Forest Pass,https://www.wta.org/go-hiking/hikes/circle-peak
Rampart Ridge - Rampart Lakes,Snoqualmie Region,Snoqualmie Pass,11,roundtrip,2200,5100,4.12,26,47.3979629,-121.2843441,10/30/21 0:00,409,0,1,1,1,0,0,0,1,0,0,1,1,0,0,0,Northwest Forest Pass,https://www.wta.org/go-hiking/hikes/rampart-ridge-1
Owyhigh Lakes,Mount Rainier Area,NE - Sunrise/White River,7,roundtrip,1650,5275,3.65,17,46.890517,-121.596783,10/16/21 0:00,231,0,0,1,0,1,0,1,1,0,1,0,1,0,1,1,National Park Pass,https://www.wta.org/go-hiking/hikes/owyhigh-lakes
Mount Zion,Olympic Peninsula,Hood Canal,4.6,roundtrip,1300,4274,3.52,21,47.9228,-123.0260667,10/13/21 0:00,231,0,0,0,0,0,0,0,0,0,0,0,0,0,0,0,Northwest Forest Pass,https://www.wta.org/go-hiking/hikes/mount-zion
"Stagman Ridge, Horseshoe Meadow, Lookingglass Lake",South Cascades,Mount Adams Area,14,roundtrip,2400,6100,3.83,6,46.14005808,-121.5973878,9/16/21 0:00,18,0,0,0,0,1,0,1,1,0,1,1,1,1,0,0,No pass,https://www.wta.org/go-hiking/hikes/horseshoe-meadow
Palouse to Cascades Trail - The Tunnel,Snoqualmie Region,Snoqualmie Pass,5.3,roundtrip,,1100,3.71,17,47.39301667,-121.3928,10/20/21 0:00,164,0,0,0,0,0,0,0,0,0,0,0,0,1,0,1,Discover Pass,https://www.wta.org/go-hiking/hikes/iron-horse-tunnel
Humpback Mountain,Snoqualmie Region,Snoqualmie Pass,4,roundtrip,2600,5112,3.79,14,47.37841085,-121.5161877,11/6/21 0:00,162,0,0,0,0,0,0,0,1,1,0,1,0,1,0,0,,https://www.wta.org/go-hiking/hikes/humpback-mountain
Cable Line Trail,Issaquah Alps,Tiger Mountain,3,roundtrip,2022,2522,3.74,23,47.52960425,-121.9843769,11/2/21 0:00,378,0,0,0,0,0,0,0,0,0,0,0,0,1,0,0,Discover Pass,https://www.wta.org/go-hiking/hikes/cable-line-trail
Thorp Mountain Lookout via Thorp Creek,Snoqualmie Region,Salmon La Sac/Teanaway,7.4,roundtrip,2484,5884,4.1,10,47.37325953,-121.1582186,10/31/21 0:00,118,0,0,1,0,0,1,1,1,1,0,0,0,1,0,0,No pass,https://www.wta.org/go-hiking/hikes/thorp-mountain-lookout-via-thorp-creek
Snoqualmie Mountain,Snoqualmie Region,,3.8,roundtrip,3105,6278,4.47,15,47.4452794,-121.4234437,10/29/21 0:00,261,0,0,0,0,0,0,0,1,1,0,0,0,0,0,0,Northwest Forest Pass,https://www.wta.org/go-hiking/hikes/mount-snoqualmie
Shelton View Forest,Puget Sound and Islands,Seattle-Tacoma Area,5,trails,,,3.67,3,47.78398067,-122.2417617,10/12/21 0:00,15,0,0,0,0,1,1,0,0,0,1,1,0,1,0,1,No pass,https://www.wta.org/go-hiking/hikes/shelton-view-forest
Union Bay Natural Area,Puget Sound and Islands,Seattle-Tacoma Area,1.5,roundtrip,,,2.75,4,47.6579868,-122.290565,3/13/21 0:00,28,0,0,1,0,0,0,0,1,0,1,0,0,1,0,1,,https://www.wta.org/go-hiking/hikes/union-bay-nature-area
Skyscraper Pass,Mount Rainier Area,NE - Sunrise/White River,6.8,roundtrip,1700,7079,4,5,46.9146,-121.6423,9/11/21 0:00,102,0,0,0,0,0,0,0,1,0,0,1,0,0,1,0,National Park Pass,https://www.wta.org/go-hiking/hikes/skyscraper-pass
Wildwood Park,Puget Sound and Islands,Seattle-Tacoma Area,3,trails,75,354,4,2,47.16970211,-122.2813511,8/9/21 0:00,3,0,0,0,1,0,1,0,0,0,0,0,0,1,0,1,No pass,https://www.wta.org/go-hiking/hikes/wildwood-park
Nathan Chapman Memorial Trail,Puget Sound and Islands,Seattle-Tacoma Area,0.6,one-way,,,5,1,47.128385,-122.314623,8/10/21 0:00,2,0,0,0,0,0,0,0,0,0,0,0,0,1,0,1,No pass,https://www.wta.org/go-hiking/hikes/nathan-chapman-memorial-trail
Kukutali Preserve,Puget Sound and Islands,Bellingham Area,2.2,roundtrip,200,230,4.25,12,48.42097114,-122.5529449,10/19/21 0:00,93,1,0,0,0,1,1,0,0,0,1,0,0,0,1,1,Discover Pass,https://www.wta.org/go-hiking/hikes/kukutali-preserve
Mount Aix,Mount Rainier Area,Chinook Pass - Hwy 410,12,roundtrip,4650,7766,4.45,11,46.8139,-121.3055,8/8/21 0:00,135,0,0,0,0,0,0,0,1,1,0,1,0,1,0,0,Northwest Forest Pass,https://www.wta.org/go-hiking/hikes/mount-aix
Little Bald Mountain,Mount Rainier Area,Chinook Pass - Hwy 410,12.6,roundtrip,2185,4602,2.67,3,46.98152656,-121.1205597,6/26/20 0:00,8,0,0,0,0,0,0,1,1,1,0,1,0,1,0,0,No pass,https://www.wta.org/go-hiking/hikes/little-bald-mountain
Rattlesnake Trail,Mount Rainier Area,Chinook Pass - Hwy 410,6,roundtrip,300,3000,0,0,46.79555923,-121.1009135,7/19/19 0:00,3,0,1,0,0,0,0,0,0,0,1,0,0,1,0,0,No pass,https://www.wta.org/go-hiking/hikes/rattlesnake-trail-1114
Burnt Mountain,South Cascades,White Pass/Cowlitz River Valley,5,roundtrip,500,6586,4,12,46.71515,-121.1660167,7/4/21 0:00,59,0,0,0,0,0,0,1,1,1,1,1,0,1,0,0,Northwest Forest Pass,https://www.wta.org/go-hiking/hikes/burnt-mountain
American Ridge,Mount Rainier Area,Chinook Pass - Hwy 410,12,one-way,2950,6310,3.6,5,46.9695,-121.168,8/8/21 0:00,76,0,1,1,0,0,0,0,1,0,0,1,1,1,0,0,Northwest Forest Pass,https://www.wta.org/go-hiking/hikes/american-ridge
Bonaparte Trail,Eastern Washington,Okanogan Highlands/Kettle River Range,11,roundtrip,2700,7250,0,0,48.812851,-119.123565,6/13/21 0:00,18,0,0,1,0,0,0,0,0,1,0,0,0,1,0,0,Northwest Forest Pass,https://www.wta.org/go-hiking/hikes/bonaparte-lake-trail
Cabin Trail,Eastern Washington,Okanogan Highlands/Kettle River Range,5,roundtrip,,,4.25,4,48.770925,-119.183758,5/27/20 0:00,1,0,0,0,0,0,1,0,0,0,0,0,0,1,0,0,,https://www.wta.org/go-hiking/hikes/cabin-trail
Mount Bonaparte Circumnavigation,Eastern Washington,Okanogan Highlands/Kettle River Range,16,roundtrip,3000,7250,0,0,,,10/3/20 0:00,1,0,0,0,0,0,0,0,1,1,0,0,1,1,0,0,Northwest Forest Pass,https://www.wta.org/go-hiking/hikes/mount-bonaparte-circumnavigation
Grand Forest,Puget Sound and Islands,Seattle-Tacoma Area,7,trails,,350,3.5,2,47.650406,-122.5478536,8/13/21 0:00,12,0,0,0,0,0,0,1,0,0,1,0,0,1,0,1,No pass,https://www.wta.org/go-hiking/hikes/grand-forest
Little Quilcene River,Olympic Peninsula,Hood Canal,6.8,roundtrip,2180,6200,3.94,16,47.88663792,-123.0418818,10/31/21 0:00,140,0,0,0,0,0,0,1,1,1,1,1,0,0,0,0,No pass,https://www.wta.org/go-hiking/hikes/little-quilcene-river
Lake Angeles,Olympic Peninsula,Northern Coast,7.4,roundtrip,2350,4196,3.56,18,48.03908333,-123.4319333,8/29/21 0:00,178,0,0,1,0,0,0,0,0,0,0,0,1,0,1,0,National Park Pass,https://www.wta.org/go-hiking/hikes/lake-angeles
Lily and Lizard Lake Loop,Puget Sound and Islands,Bellingham Area,7.15,roundtrip,1400,2120,3.9,10,48.61699503,-122.3857856,11/7/21 0:00,223,0,0,1,1,1,0,1,1,0,1,1,1,1,0,1,Discover Pass,https://www.wta.org/go-hiking/hikes/lily-lizard-lake-loop
Big Gulch,Puget Sound and Islands,Seattle-Tacoma Area,2.6,roundtrip,300,460,3.27,11,47.9150497,-122.2975571,10/17/21 0:00,56,0,0,0,0,0,1,1,0,0,1,0,0,1,0,1,No pass,https://www.wta.org/go-hiking/hikes/big-gulch-mukilteo
Spray Park,Mount Rainier Area,NW - Carbon River/Mowich,8,roundtrip,1700,6500,4.29,56,46.9327,-121.8636167,10/9/21 0:00,589,0,0,0,1,1,0,1,1,0,1,0,0,0,1,0,National Park Pass,https://www.wta.org/go-hiking/hikes/spray-park
Langus Riverfront Park,Puget Sound and Islands,Seattle-Tacoma Area,3,roundtrip,,,2.75,4,48.0001929,-122.1755585,10/18/21 0:00,29,0,1,0,0,0,0,0,0,0,1,0,0,1,0,1,,https://www.wta.org/go-hiking/hikes/langus-riverfront-park
Mount Adams South Climb,South Cascades,Mount Adams Area,12,roundtrip,6700,12276,4.74,19,46.13586399,-121.4976034,8/26/21 0:00,358,0,1,0,0,0,0,0,1,1,0,0,1,1,0,0,Northwest Forest Pass,https://www.wta.org/go-hiking/hikes/mount-adams-south-climb
Little Mashel Falls -  Bud Blancher Trail,Mount Rainier Area,NW - Carbon River/Mowich,4.5,roundtrip,500,1100,4.75,8,46.864669,-122.25757,10/24/21 0:00,159,0,1,0,1,1,0,0,0,0,1,0,0,0,0,0,No pass,https://www.wta.org/go-hiking/hikes/little-mashel-falls-bud-blancher-trail
Teneriffe Falls,Snoqualmie Region,North Bend Area,5.6,roundtrip,1585,2370,3.91,75,47.486866,-121.709682,11/6/21 0:00,1181,0,0,0,1,0,0,1,1,0,0,0,0,1,0,0,Discover Pass,https://www.wta.org/go-hiking/hikes/teneriffe-falls
Grand Valley - Cameron Creek Loop,Olympic Peninsula,Northern Coast,30.8,roundtrip,10945,6628,0,0,47.9485227,-123.2591073,,0,0,1,1,0,0,0,0,1,0,0,1,1,0,1,0,National Park Pass,https://www.wta.org/go-hiking/grand-valley-cameron-creek-loop
Mother Mountain Loop,Mount Rainier Area,NW - Carbon River/Mowich,15.3,roundtrip,6277,6380,0,0,46.9327668,-121.8631679,8/8/21 0:00,6,0,1,1,1,0,0,1,1,0,0,1,1,0,1,0,National Park Pass,https://www.wta.org/go-hiking/hikes/mother-mountain-loop
Cameron Pass,Olympic Peninsula,Hood Canal,3.3,one-way,2401,6418,3.33,6,47.9485227,-123.2591073,8/23/21 0:00,36,0,1,0,0,0,0,1,0,0,0,1,0,0,1,0,National Park Pass,https://www.wta.org/go-hiking/hikes/cameron-pass
Cameron Creek,Olympic Peninsula,Hood Canal,6.71,one-way,3304,4210,2.75,4,47.91551871,-123.2481802,8/23/21 0:00,34,0,1,0,0,0,0,0,0,0,0,0,1,0,1,0,National Park Pass,https://www.wta.org/go-hiking/hikes/cameron-creek
Catherine Creek Loop,Southwest Washington,Columbia River Gorge - WA,5,roundtrip,,,0,0,45.2044524,-117.8473561,4/3/21 0:00,1,0,1,0,0,0,0,0,0,0,0,0,0,1,0,1,No pass,https://www.wta.org/go-hiking/hikes/catherine-creek-loop
Eastside Trail,Mount Rainier Area,SE - Cayuse Pass/Stevens Canyon,26.2,one-way,3532,,3,3,46.75115301,-121.574707,10/7/21 0:00,104,0,0,1,0,0,0,1,0,0,1,0,1,0,1,0,National Park Pass,https://www.wta.org/go-hiking/hikes/eastside-trail
Three Forks,Olympic Peninsula,Northern Coast,8.5,roundtrip,3366,5381,3.2,5,47.94902749,-123.2583618,8/23/21 0:00,54,0,1,0,0,0,0,0,1,0,0,0,1,0,1,0,National Park Pass,https://www.wta.org/go-hiking/hikes/three-forks-1
Grand Valley Loop,Olympic Peninsula,Northern Coast,7.9,roundtrip,2080,6450,4.25,20,47.91829785,-123.3822155,9/14/21 0:00,95,0,0,0,0,1,0,1,0,0,1,0,1,0,1,0,National Park Pass,https://www.wta.org/go-hiking/hikes/grand-valley
Round Pass Trail,Mount Rainier Area,SW - Longmire/Paradise,0.5,one-way,362,3885,0,0,46.79500627,-121.8947268,10/25/20 0:00,2,0,0,0,0,0,0,0,1,0,0,0,0,0,1,0,National Park Pass,https://www.wta.org/go-hiking/hikes/round-pass-trail
Frying Pan Loop,South Cascades,White Pass/Cowlitz River Valley,14.9,roundtrip,3815,3261,2.33,3,46.70421813,-121.4806339,8/18/19 0:00,8,0,0,1,0,0,1,0,1,1,0,0,1,1,0,0,,https://www.wta.org/go-hiking/hikes/frying-pan
Crystal Lakes,Mount Rainier Area,NE - Sunrise/White River,6,roundtrip,2600,5828,4.3,44,46.92273333,-121.5336167,10/31/21 0:00,437,0,0,1,0,1,0,1,1,0,1,0,1,0,1,0,No pass,https://www.wta.org/go-hiking/hikes/crystal-lakes
Iron Goat Trail - Winter Route,Central Cascades,Stevens Pass - West,,,,,0,0,47.7120293,-121.1622797,7/19/20 0:00,11,0,0,0,0,0,0,0,0,0,0,0,0,0,0,0,,https://www.wta.org/go-hiking/hikes/iron-goat-trail-snowshoe
Jumbo Peak,South Cascades,Dark Divide,6,roundtrip,1300,5801,2.75,4,46.33538333,-121.7433833,8/24/20 0:00,10,0,0,0,0,0,0,1,1,1,0,0,0,0,0,0,Northwest Forest Pass,https://www.wta.org/go-hiking/hikes/jumbo-peak
Jolly Mountain,Snoqualmie Region,Salmon La Sac/Teanaway,13.9,roundtrip,4000,6440,2.62,8,47.4044,-121.099117,11/5/21 0:00,69,0,0,0,0,0,0,1,1,1,0,1,0,0,0,0,Northwest Forest Pass,https://www.wta.org/go-hiking/hikes/jolly-mountain
Japanese Gulch,Puget Sound and Islands,Seattle-Tacoma Area,4,trails,174,363,3.2,10,47.94676382,-122.2920799,9/30/21 0:00,97,0,1,0,1,1,0,0,1,0,0,0,0,1,0,1,No pass,https://www.wta.org/go-hiking/hikes/japanese-gulch
Jumpoff Ridge,Central Cascades,Stevens Pass - West,8,roundtrip,1800,2600,1,1,47.8537658,-121.5022057,8/1/20 0:00,23,0,0,0,0,0,1,0,1,0,0,1,0,0,0,0,No pass,https://www.wta.org/go-hiking/hikes/jumpoff-ridge
Johnson Creek - Medra Pass,Snoqualmie Region,Salmon La Sac/Teanaway,8,roundtrip,2250,5420,3.7,10,47.3812,-120.885733,10/6/21 0:00,104,0,1,0,0,0,0,1,1,0,0,1,0,1,0,0,Northwest Forest Pass,https://www.wta.org/go-hiking/hikes/johnson-medra-creek
June Lake Snowshoe,South Cascades,Mount St. Helens,4.8,roundtrip,500,3140,3.75,4,46.1352375,-122.1568904,3/20/21 0:00,39,0,1,1,1,1,0,0,1,0,0,0,0,0,0,1,Sno-Parks Permit,https://www.wta.org/go-hiking/hikes/june-lake-snowshoe
Judi's Peak,Snoqualmie Region,Salmon La Sac/Teanaway,,,3417,6560,0,0,,,5/18/21 0:00,8,0,0,0,0,0,0,0,0,0,0,0,0,0,0,0,Northwest Forest Pass,https://www.wta.org/go-hiking/hikes/judis-peak
Jug Lake,South Cascades,White Pass/Cowlitz River Valley,7.4,roundtrip,1485,4480,2.89,9,46.72303333,-121.4366,9/1/21 0:00,23,0,0,1,0,0,0,0,0,0,0,0,1,1,0,0,,https://www.wta.org/go-hiking/hikes/jug-lake
Ice Cave - Natural Bridges Nature Trails,South Cascades,Mount Adams Area,0.25,roundtrip,,2900,2.2,5,46.1298056,-121.8392125,5/17/21 0:00,8,0,0,0,0,0,0,0,0,0,0,0,0,0,0,1,,https://www.wta.org/go-hiking/hikes/ice-cave-natural-bridges-nature-trails
Junction Lake,South Cascades,Mount Adams Area,5,roundtrip,700,4780,2.5,2,45.98114209,-121.7581594,7/8/21 0:00,5,0,0,1,0,1,0,1,0,0,0,0,1,0,0,0,,https://www.wta.org/go-hiking/hikes/indian-heaven-junction-lake
Indian Racetrack,South Cascades,Mount Adams Area,5,roundtrip,700,5200,3.33,6,46.1298056,-121.8392125,3/6/21 0:00,18,0,0,1,0,0,0,1,1,0,0,0,0,0,0,1,,https://www.wta.org/go-hiking/hikes/indian-racetrack
Howson Creek,Snoqualmie Region,Salmon La Sac/Teanaway,7,roundtrip,3400,5700,2.6,5,47.3514085,-121.1043602,7/2/21 0:00,24,0,0,0,0,0,0,1,1,1,0,1,0,0,0,0,No pass,https://www.wta.org/go-hiking/hikes/howson-creek
Iron Creek Campground Loop,South Cascades,White Pass/Cowlitz River Valley,1.5,roundtrip,,1200,3,5,46.429127,-121.9877633,6/18/21 0:00,13,0,1,0,0,1,1,1,0,0,0,0,1,0,0,1,Northwest Forest Pass,https://www.wta.org/go-hiking/hikes/iron-creek-campground
Illahee Forest Preserve,Olympic Peninsula,Kitsap Peninsula,2.7,roundtrip,210,530,3,2,47.597645,-122.59798,3/9/21 0:00,14,0,0,0,0,0,1,0,0,0,1,0,0,1,0,1,No pass,https://www.wta.org/go-hiking/hikes/illahee-preserve
Iceberg Point,Puget Sound and Islands,San Juan Islands,3,roundtrip,50,,4,6,48.42470111,-122.8774109,8/29/21 0:00,38,1,0,0,0,0,0,1,1,0,0,0,0,1,0,1,,https://www.wta.org/go-hiking/hikes/iceberg-point
Howard Creek,Central Cascades,Blewett Pass,6,roundtrip,,5600,2,4,47.31586013,-120.4998064,9/6/21 0:00,11,0,0,0,0,0,1,1,1,0,0,0,0,0,0,0,Northwest Forest Pass,https://www.wta.org/go-hiking/hikes/howard-creek
Lake Roosevelt National Recreation Area - Hawk Creek,Eastern Washington,Spokane Area/Coeur d'Alene,4.5,roundtrip,900,,0,0,47.810894,-118.310364,5/11/20 0:00,9,0,1,0,1,0,0,0,0,0,1,0,1,0,0,0,No pass,https://www.wta.org/go-hiking/hikes/hawk-creek-lake-roosevelt-nra
Hawkins Mountain,Snoqualmie Region,Salmon La Sac/Teanaway,10,roundtrip,3360,7160,3.5,2,47.45383312,-121.0416985,10/16/21 0:00,45,0,0,1,0,0,0,1,1,1,0,0,0,0,0,0,Northwest Forest Pass,https://www.wta.org/go-hiking/hikes/hawkins-mountain
Holden to Hart Lake,Central Cascades,Entiat Mountains/Lake Chelan,9,roundtrip,1000,3982,3,3,48.199517,-120.779208,9/15/21 0:00,16,0,0,1,1,0,1,0,1,0,0,0,1,1,0,0,,https://www.wta.org/go-hiking/hikes/holden-to-heart-lake
High Lakes Ramble,South Cascades,Mount Adams Area,6.4,roundtrip,1350,4370,3,6,46.29296667,-121.5959833,8/31/20 0:00,6,0,1,1,0,0,0,1,1,0,1,0,0,1,0,0,Northwest Forest Pass,https://www.wta.org/go-hiking/hikes/high-lakes
Hibox Mountain,Snoqualmie Region,Snoqualmie Pass,10,roundtrip,3900,6560,3.4,5,47.40076024,-121.2840414,9/26/21 0:00,82,0,0,0,0,0,0,1,1,1,0,0,0,0,0,0,Northwest Forest Pass,https://www.wta.org/go-hiking/hikes/hibox-mountain
Heart O' the Forest,Olympic Peninsula,Northern Coast,4.8,roundtrip,500,1900,3,2,48.03504439,-123.4245149,7/23/21 0:00,18,0,1,0,0,1,0,1,0,0,0,0,1,0,1,1,National Park Pass,https://www.wta.org/go-hiking/hikes/heart-o-the-forest
Henskin Lake,Mount Rainier Area,Chinook Pass - Hwy 410,6,roundtrip,1000,5550,3,5,46.93690918,-121.4692318,9/25/21 0:00,41,0,0,1,0,0,0,1,0,0,0,0,0,1,0,0,,https://www.wta.org/go-hiking/hikes/henskin-lake
Hemlock Peak,Snoqualmie Region,Snoqualmie Pass,,,3440,5560,4,1,,,10/15/20 0:00,6,0,0,0,0,0,0,0,0,0,0,0,0,0,0,0,Northwest Forest Pass,https://www.wta.org/go-hiking/hikes/hemlock-peak
Gray Peak,North Cascades,Methow/Sawtooth,,,5056,8074,5,1,48.267363,-120.4642605,6/14/21 0:00,7,0,0,1,0,0,0,0,1,1,0,1,0,0,0,0,Northwest Forest Pass,https://www.wta.org/go-hiking/hikes/gray-peak
Gold Basin Mill Pond Interpretive Trail,North Cascades,Mountain Loop Highway,0.25,roundtrip,,,3,1,48.087712,-121.7695427,9/5/20 0:00,11,0,0,1,0,0,0,0,0,0,1,0,0,1,0,1,No pass,https://www.wta.org/go-hiking/hikes/gold-basin-mill-pond-interpretive-trail
Haney Meadow Loop Snowshoe,Central Cascades,Blewett Pass,7.7,roundtrip,2060,5960,4.5,2,47.3348885,-120.580815,11/29/20 0:00,7,0,0,0,0,0,0,0,1,0,0,1,0,0,0,0,Sno-Parks Permit,https://www.wta.org/go-hiking/hikes/haney-meadow-loop-snowshoe
Greenbank Farm,Puget Sound and Islands,Whidbey Island,7,trails,275,300,3.2,5,48.11132827,-122.5756216,10/31/21 0:00,10,0,0,0,0,0,0,0,1,0,1,0,0,1,0,1,No pass,https://www.wta.org/go-hiking/hikes/greenbank-farm
Granite Mountain - Winter,Snoqualmie Region,Snoqualmie Pass,,,3750,5629,4,4,47.3979139,-121.4877653,5/31/21 0:00,109,0,0,0,0,0,0,0,1,1,0,0,0,0,0,0,,https://www.wta.org/go-hiking/hikes/granite-mountain-snowshoe
East Tiger,Issaquah Alps,Tiger Mountain,10.6,roundtrip,2940,3004,2.57,7,47.50755266,-121.9582254,4/21/21 0:00,82,0,0,0,0,0,0,0,0,0,0,0,0,0,0,0,Discover Pass,https://www.wta.org/go-hiking/hikes/east-tiger
Silent Swamp Loop,Issaquah Alps,Tiger Mountain,8.8,roundtrip,600,1780,2.89,9,47.46831145,-121.9362044,7/17/21 0:00,37,0,0,0,0,0,1,1,1,0,1,0,0,0,0,1,Discover Pass,https://www.wta.org/go-hiking/hikes/silent-swamp
Inside Passage,Issaquah Alps,Tiger Mountain,6.2,roundtrip,1600,2150,1,1,47.46837457,-121.9363104,4/24/21 0:00,11,0,1,0,0,0,1,0,0,0,1,0,0,1,0,0,Discover Pass,https://www.wta.org/go-hiking/hikes/inside-passage
Freund Canyon,Central Cascades,Leavenworth Area,7.3,roundtrip,1800,3000,1,1,47.62858248,-120.6558037,8/10/21 0:00,8,0,0,0,0,0,0,0,1,0,0,0,0,0,0,0,No pass,https://www.wta.org/go-hiking/hikes/freund-canyon
Esmeralda Peak Loop,Snoqualmie Region,Salmon La Sac/Teanaway,12.1,roundtrip,2940,6000,4.67,3,47.44318219,-120.9399033,10/2/21 0:00,17,0,1,0,0,0,0,1,1,0,0,1,0,1,0,0,Northwest Forest Pass,https://www.wta.org/go-hiking/hikes/esmeralda-peak-loop
Easy Pass,North Cascades,North Cascades Highway - Hwy 20,7,roundtrip,2800,6500,4,20,48.58791667,-120.8028667,10/19/21 0:00,200,0,0,0,0,0,1,1,1,0,0,1,0,0,0,0,Northwest Forest Pass,https://www.wta.org/go-hiking/hikes/easy-pass
Burroughs Mountain,Mount Rainier Area,NE - Sunrise/White River,9,roundtrip,2500,7828,4.48,73,46.91461667,-121.6423333,10/9/21 0:00,767,0,0,0,0,0,1,1,1,1,1,1,0,0,1,1,National Park Pass,https://www.wta.org/go-hiking/hikes/burroughs-mountain
Cooney Lake,North Cascades,Methow/Sawtooth,17.6,roundtrip,2850,7260,3.17,6,48.22177223,-120.2668674,10/9/21 0:00,70,0,0,1,0,0,1,1,1,0,0,0,0,1,0,0,Northwest Forest Pass,https://www.wta.org/go-hiking/hikes/cooney-lake
Icicle Creek,Central Cascades,Leavenworth Area,4,roundtrip,,,3.44,9,47.61239153,-120.9500168,9/4/21 0:00,144,0,1,0,0,1,0,0,0,0,0,0,1,0,0,1,Northwest Forest Pass,https://www.wta.org/go-hiking/hikes/icicle-creek
Crescent Beach Preserve,Puget Sound and Islands,San Juan Islands,1.5,roundtrip,40,60,3,2,48.69595,-122.891567,9/14/21 0:00,4,1,0,0,0,0,1,0,0,0,1,0,0,0,0,1,No pass,https://www.wta.org/go-hiking/hikes/crescent-beach-preserve
Boulder Creek,Central Cascades,Leavenworth Area,17.25,roundtrip,4850,6310,3,5,48.00115,-120.9634,8/12/20 0:00,7,0,1,0,0,1,0,1,1,0,1,1,0,1,0,0,Northwest Forest Pass,https://www.wta.org/go-hiking/hikes/boulder-creek
Duncan Hill,Central Cascades,Entiat Mountains/Lake Chelan,13.6,roundtrip,3000,7819,3.29,7,48.01723584,-120.5894136,10/14/21 0:00,17,0,0,0,0,0,0,1,1,1,1,1,0,0,0,0,Northwest Forest Pass,https://www.wta.org/go-hiking/hikes/duncan-hill
North Fork Entiat River,Central Cascades,Entiat Mountains/Lake Chelan,26,roundtrip,4000,7150,2.5,4,48.01121432,-120.5717969,8/23/21 0:00,37,0,1,1,0,0,1,1,1,0,1,0,1,1,0,0,Northwest Forest Pass,https://www.wta.org/go-hiking/hikes/north-fork-entiat-river
Tungsten,North Cascades,Pasayten,6.2,one-way,2100,6800,3,5,48.82364948,-120.0188541,8/9/20 0:00,22,0,0,0,0,0,0,1,1,0,0,1,0,0,0,0,Northwest Forest Pass,https://www.wta.org/go-hiking/hikes/tungsten
Fern Lake,Central Cascades,Entiat Mountains/Lake Chelan,16,roundtrip,3600,6950,4,6,48.01119997,-120.5718881,8/23/21 0:00,13,0,1,1,0,0,0,1,1,0,1,0,0,0,0,0,Northwest Forest Pass,https://www.wta.org/go-hiking/hikes/fern-lake
Miners Ridge (Entiat),Central Cascades,Entiat Mountains/Lake Chelan,4,roundtrip,850,5750,3.8,5,47.80016667,-120.57235,8/26/17 0:00,4,0,0,0,0,0,0,0,1,0,0,1,0,1,0,0,Northwest Forest Pass,https://www.wta.org/go-hiking/hikes/miners-ridge
Beacon Rock State Park - Hadley Trail,Southwest Washington,Columbia River Gorge - WA,1.2,roundtrip,175,750,0,0,45.62769429,-122.0234513,4/29/17 0:00,1,0,0,0,0,0,0,1,1,0,0,0,0,1,0,1,Discover Pass,https://www.wta.org/go-hiking/hikes/hadley-trail
Myrtle Falls,Mount Rainier Area,SW - Longmire/Paradise,0.8,roundtrip,185,5600,3.5,4,46.78612695,-121.7359132,10/31/21 0:00,39,0,0,0,1,0,0,1,1,0,1,0,0,0,1,1,National Park Pass,https://www.wta.org/go-hiking/hikes/myrtle-falls
Crestwoods Park Trail,Puget Sound and Islands,Seattle-Tacoma Area,1.5,trails,195,235,3,1,47.69313941,-122.1972831,8/7/21 0:00,6,0,0,0,0,0,0,0,0,0,0,0,0,0,0,0,,https://www.wta.org/go-hiking/hikes/crestwood-park-trail
Capitol State Forest - Waddell Basin West,Olympic Peninsula,Olympia,9.22,one-way,1390,1035,0,0,46.93909815,-123.077538,9/1/19 0:00,5,0,0,0,0,0,0,0,0,0,0,0,0,1,0,0,Discover Pass,https://www.wta.org/go-hiking/hikes/waddell-basin-west
Illahee Lake Trail,Puget Sound and Islands,Seattle-Tacoma Area,0.5,roundtrip,35,370,0,0,47.61672307,-122.025404,3/15/21 0:00,1,0,0,1,0,0,0,0,0,0,0,0,0,1,0,1,No pass,https://www.wta.org/go-hiking/hikes/illahee-lake-trail
Lyre Conservation Area,Olympic Peninsula,Northern Coast,2.5,roundtrip,235,180,5,1,48.14730939,-123.8235408,7/26/21 0:00,8,1,0,0,0,0,0,0,0,0,1,0,0,1,0,1,No pass,https://www.wta.org/go-hiking/hikes/lyre-conservation-area
Sunset Hill Park,Puget Sound and Islands,Seattle-Tacoma Area,0.25,roundtrip,90,290,1,1,47.68319501,-122.400527,8/23/21 0:00,6,0,0,0,0,0,0,0,1,0,0,0,0,1,0,1,No pass,https://www.wta.org/go-hiking/hikes/sunset-hill-park
Nute's Pond Park,Puget Sound and Islands,Seattle-Tacoma Area,1.5,roundtrip,10,280,0,0,47.58172576,-122.5066566,2/21/20 0:00,1,0,0,1,0,0,0,0,0,0,0,0,0,1,0,1,No pass,https://www.wta.org/go-hiking/hikes/nutes-pond-park
Moments in Time Interpretive Trail,Olympic Peninsula,Northern Coast,1,roundtrip,25,600,4.5,2,48.057893,-123.788611,6/25/21 0:00,6,0,0,1,0,1,0,1,1,0,1,0,0,0,1,1,National Park Pass,https://www.wta.org/go-hiking/hikes/moments-in-time-trail
Diablo Lake,North Cascades,North Cascades Highway - Hwy 20,7.6,roundtrip,1400,1950,3.22,36,48.7205841,-121.1216068,9/12/21 0:00,206,0,0,1,0,0,0,0,1,0,0,0,0,1,0,0,No pass,https://www.wta.org/go-hiking/hikes/diablo-lake
White River,Central Cascades,Stevens Pass - East,8.2,roundtrip,900,2507,3,6,47.96273849,-120.9449988,11/4/21 0:00,82,0,1,0,0,1,0,0,1,0,1,0,0,1,0,1,Northwest Forest Pass,https://www.wta.org/go-hiking/hikes/white-river
Selah Butte,Central Washington,Yakima,,,,,3.33,6,46.72975328,-120.4525584,3/21/21 0:00,40,0,0,0,0,0,0,0,0,0,0,0,0,0,0,0,,https://www.wta.org/go-hiking/hikes/selah-butte
Jarrell Cove State Park - Harstine Island,Olympic Peninsula,Kitsap Peninsula,1.5,roundtrip,200,175,3.5,6,47.2303176,-122.8835855,8/1/21 0:00,12,1,1,0,0,1,0,0,0,0,0,0,0,1,0,1,Discover Pass,https://www.wta.org/go-hiking/hikes/harstine-island-state-park
Bayshore Preserve,Olympic Peninsula,Olympia,2,trails,75,40,2,1,47.248556,-123.044222,9/8/21 0:00,3,1,0,0,0,0,0,0,0,0,1,0,0,0,1,1,No pass,https://www.wta.org/go-hiking/hikes/bayshore-preserve
Yellow Lake,Issaquah Alps,,1.25,roundtrip,20,420,3.5,2,47.56972181,-122.0154476,8/1/21 0:00,8,0,0,1,0,0,0,1,0,0,1,0,0,1,0,1,No pass,https://www.wta.org/go-hiking/hikes/yellow-lake
Lookout Mountain Forest Preserve,Puget Sound and Islands,Bellingham Area,6.5,trails,1000,,3.43,7,48.71906936,-122.3553586,10/16/21 0:00,55,0,1,1,1,0,0,1,0,0,0,0,0,1,0,1,No pass,https://www.wta.org/go-hiking/hikes/lookout-mountain-forest-preserve
Galbraith Mountain,Puget Sound and Islands,Bellingham Area,65,trails,1785,1785,0,0,48.74400734,-122.4263084,2/22/20 0:00,1,0,0,0,0,0,0,0,1,0,0,0,0,0,0,0,No pass,https://www.wta.org/go-hiking/hikes/galbraith-mountain
Ludlow Falls Interpretive Trail,Olympic Peninsula,Hood Canal,0.6,roundtrip,100,100,0,0,47.91949144,-122.7065563,9/15/21 0:00,4,0,0,1,1,0,0,0,0,0,0,0,0,1,0,1,No pass,https://www.wta.org/go-hiking/hikes/ludlow-falls-interpretive-trail
Blue Lake Creek,South Cascades,Dark Divide,4.8,roundtrip,2100,4000,3.5,10,46.41018,-121.73369,10/7/21 0:00,29,0,0,1,1,0,0,0,0,0,0,0,1,1,0,0,No pass,https://www.wta.org/go-hiking/hikes/blue-lake-creek
Mount Washington,Olympic Peninsula,Hood Canal,4,roundtrip,3190,,3.67,9,47.52035982,-123.2351875,8/3/21 0:00,37,0,0,0,0,0,0,1,0,1,0,1,0,1,0,0,Northwest Forest Pass,https://www.wta.org/go-hiking/hikes/mount-washington
Lena Lake - Valley of Silent Men Snowshoe,Olympic Peninsula,,10,roundtrip,2000,2800,3.2,5,47.6008706,-123.1455854,8/2/21 0:00,15,0,0,0,0,1,0,0,0,0,0,0,0,1,0,0,Northwest Forest Pass,https://www.wta.org/go-hiking/hikes/lena-lake-valley-of-silent-men-snowshoe
Cold Creek Loop via Tinkham and Silver Peaks,Snoqualmie Region,Snoqualmie Pass,8,roundtrip,2600,4500,3.44,9,47.366011,-121.4199016,9/25/21 0:00,135,0,0,1,0,0,1,1,1,0,0,1,1,1,0,0,No pass,https://www.wta.org/go-hiking/hikes/cold-creek
North Fork Skykomish River,Central Cascades,Stevens Pass - West,10,roundtrip,1000,4000,2.86,7,47.9279415,-121.2731497,9/4/21 0:00,83,0,1,0,0,1,0,1,1,1,0,1,1,0,0,0,Northwest Forest Pass,https://www.wta.org/go-hiking/hikes/north-fork-skykomish-river
Elk Mountain to Maiden Peak,Olympic Peninsula,Pacific Coast,8,roundtrip,840,6625,4.75,4,47.93445793,-123.320909,9/7/21 0:00,37,0,0,0,0,0,0,1,1,0,1,1,1,0,0,0,National Park Pass,https://www.wta.org/go-hiking/hikes/elk-mtn-to-maiden-peak
Glacier Basin,Mount Rainier Area,NE - Sunrise/White River,6.5,roundtrip,1600,5900,4.17,36,46.90215,-121.6436833,10/7/21 0:00,365,0,1,1,0,0,0,1,1,0,1,0,1,0,1,1,National Park Pass,https://www.wta.org/go-hiking/hikes/glacier-basin
Windy Peak Loop,North Cascades,Pasayten,14.8,roundtrip,3830,8060,5,1,48.908329,-119.903878,6/21/20 0:00,4,0,0,0,0,0,0,0,0,1,1,0,0,0,0,0,Northwest Forest Pass,https://www.wta.org/go-hiking/hikes/windy-peak-loop
Sand Point,Olympic Peninsula,Pacific Coast,6,roundtrip,150,100,3.12,8,48.15400492,-124.6689892,9/25/21 0:00,61,1,0,0,0,0,0,0,0,0,1,0,1,0,1,1,National Park Pass,https://www.wta.org/go-hiking/hikes/sand-point
Rialto Beach and Hole-in-the-Wall,Olympic Peninsula,Pacific Coast,4,roundtrip,,,4.15,26,47.92115,-124.6381833,10/16/21 0:00,194,1,0,0,0,0,0,0,0,0,1,0,1,0,1,1,,https://www.wta.org/go-hiking/hikes/rialto-beach-hole-in-the-wall
Spider Meadow and Phelps Basin,Central Cascades,Stevens Pass - East,13,roundtrip,1900,5400,4.19,27,48.08291667,-120.8349667,10/21/21 0:00,245,0,0,0,0,1,0,1,1,0,1,0,1,0,0,0,No pass,https://www.wta.org/go-hiking/hikes/spider-meadows
Huckleberry Creek,Mount Rainier Area,Chinook Pass - Hwy 410,8.6,one-way,3835,6778,3.22,9,47.00928924,-121.6171074,10/7/21 0:00,70,0,1,0,0,1,0,0,1,0,0,1,0,0,0,1,Northwest Forest Pass,https://www.wta.org/go-hiking/hikes/huckleberry-creek
North Fork Skokomish River,Olympic Peninsula,Hood Canal,15.2,one-way,3568,4688,3.57,7,47.51569352,-123.3295155,11/3/21 0:00,229,0,1,0,0,0,0,0,1,0,0,1,1,0,1,0,National Park Pass,https://www.wta.org/go-hiking/hikes/north-fork-skokomish-river
Little Tahoma,Mount Rainier Area,NE - Sunrise/White River,,,,,3.33,3,46.8937515,-121.5792006,7/3/20 0:00,10,0,0,0,0,0,0,0,0,0,0,0,0,0,0,0,,https://www.wta.org/go-hiking/hikes/little-tahoma
Goat Island Mountain,Mount Rainier Area,NE - Sunrise/White River,,,,7288,4.5,2,46.88817856,-121.6105843,9/25/21 0:00,18,0,0,0,0,0,0,0,0,0,0,0,0,0,0,0,National Park Pass,https://www.wta.org/go-hiking/hikes/goat-island-mountain
Forest Lake,Mount Rainier Area,NE - Sunrise/White River,4.4,roundtrip,1250,6920,4,4,46.91461667,-121.6423333,9/7/21 0:00,19,0,0,1,0,0,0,1,1,0,1,1,1,0,1,1,National Park Pass,https://www.wta.org/go-hiking/hikes/forest-lake
Pratt River Trail,Snoqualmie Region,North Bend Area,13,roundtrip,1500,2240,2.67,3,47.53115449,-121.5869594,9/6/21 0:00,24,0,1,0,0,1,1,0,0,0,0,0,0,0,0,0,Northwest Forest Pass,https://www.wta.org/go-hiking/hikes/pratt-river-trail-1
High Lakes Loop,Mount Rainier Area,SW - Longmire/Paradise,3,roundtrip,600,5425,3.7,10,46.76809549,-121.7288217,10/3/21 0:00,42,0,0,1,0,0,1,1,1,0,0,1,0,0,1,1,National Park Pass,https://www.wta.org/go-hiking/hikes/high-lakes-loop
Banshee Peak,Mount Rainier Area,NE - Sunrise/White River,,,,7400,1,1,46.85115209,-121.6205406,7/28/21 0:00,21,0,1,1,1,1,0,1,1,1,1,1,1,0,1,0,,https://www.wta.org/go-hiking/hikes/banshee-peak
West Elwha,Olympic Peninsula,Pacific Coast,6,roundtrip,500,650,4.12,8,48.03177536,-123.595899,8/1/21 0:00,47,0,1,0,0,0,0,1,0,0,1,0,0,0,1,1,National Park Pass,https://www.wta.org/go-hiking/hikes/west-elwha
Seattle View Trail,Issaquah Alps,Tiger Mountain,1.2,roundtrip,,,2.5,4,47.4840492,-121.9760768,7/2/21 0:00,15,0,0,0,0,0,0,0,1,0,0,0,0,1,0,0,Discover Pass,https://www.wta.org/go-hiking/hikes/seattle-view-trail
Poo Top,Issaquah Alps,Tiger Mountain,0.8,roundtrip,,2948,3,1,47.522994,-122.0269826,7/2/21 0:00,77,0,0,0,0,0,0,0,0,0,0,0,0,1,0,1,Discover Pass,https://www.wta.org/go-hiking/hikes/poo-top
Summerland - Panhandle Gap,Mount Rainier Area,NE - Sunrise/White River,12,roundtrip,2950,6800,4.63,51,46.88836667,-121.6110333,10/16/21 0:00,625,0,0,1,1,1,1,1,1,0,1,1,1,0,1,0,National Park Pass,https://www.wta.org/go-hiking/hikes/summerland-panhandle-gap
Paddy-Go-Easy Pass,Snoqualmie Region,Salmon La Sac/Teanaway,6,roundtrip,2560,6080,3.62,13,47.5329,-121.0825833,10/30/21 0:00,111,0,0,0,0,0,0,1,1,0,0,1,0,1,0,0,No pass,https://www.wta.org/go-hiking/hikes/paddy-go-easy-pass
Hope and Mig Lakes,Central Cascades,Stevens Pass - West,5,roundtrip,1550,4650,3.12,8,47.7128,-121.1073167,10/24/21 0:00,141,0,0,1,0,0,0,0,0,0,0,0,0,1,0,1,Northwest Forest Pass,https://www.wta.org/go-hiking/hikes/mig-lake
Gold Mountain,Olympic Peninsula,Kitsap Peninsula,4,roundtrip,1087,1687,3.7,10,47.5521027,-122.8276171,8/6/21 0:00,75,0,0,0,0,0,1,1,1,1,1,0,0,1,0,1,Discover Pass,https://www.wta.org/go-hiking/hikes/gold-mountain
Indian Henry's Hunting Ground via Tahoma Creek,Mount Rainier Area,SW - Longmire/Paradise,12,roundtrip,2520,5400,3.86,7,46.7500413,-121.8129923,8/18/19 0:00,25,0,0,1,0,0,0,1,1,0,1,1,0,0,1,0,National Park Pass,https://www.wta.org/go-hiking/hikes/indian-henrys-hunting-ground
Beacon Rock State Park - Hardy Creek,Southwest Washington,Columbia River Gorge - WA,,,,,2,1,45.64302806,-122.012701,7/26/20 0:00,13,0,0,0,0,0,0,0,0,0,0,0,0,1,0,0,Discover Pass,https://www.wta.org/go-hiking/hikes/hardy-creek
Hidden Forest Trail,Issaquah Alps,Tiger Mountain,7.4,roundtrip,2650,2340,3.67,6,47.49995171,-122.0217665,10/21/21 0:00,54,0,0,0,0,0,1,0,1,0,0,0,0,1,0,0,No pass,https://www.wta.org/go-hiking/hikes/hidden-forest
Hobart - Middle Tiger Railroad Trail,Issaquah Alps,Tiger Mountain,10.2,roundtrip,1550,2180,3.5,4,47.48081719,-121.9663176,11/6/21 0:00,19,0,0,0,0,0,1,1,1,0,1,0,0,1,0,1,Discover Pass,https://www.wta.org/go-hiking/hikes/hobart-middle-tiger-railroad-grade
High School Trail,Issaquah Alps,Tiger Mountain,2.1,roundtrip,375,480,3.67,3,47.5192503,-122.0298375,10/9/21 0:00,123,0,0,0,0,0,1,1,0,0,1,0,0,1,0,1,No pass,https://www.wta.org/go-hiking/hikes/high-school-trail
Golden Gate,Mount Rainier Area,SW - Longmire/Paradise,3.2,roundtrip,1000,6400,4,6,46.78603333,-121.7349833,10/2/21 0:00,96,0,0,0,1,0,1,1,1,0,1,0,0,0,1,0,National Park Pass,https://www.wta.org/go-hiking/hikes/golden-gate
Grand Canyon of Fifteenmile Creek,Issaquah Alps,Tiger Mountain,1.4,roundtrip,350,1200,2.25,4,,,10/31/21 0:00,24,0,1,0,1,0,0,0,0,0,0,0,0,0,0,0,Discover Pass,https://www.wta.org/go-hiking/hikes/grand-canyon-of-fifteenmile-creek
Green Lake,Puget Sound and Islands,Seattle-Tacoma Area,2.8,roundtrip,,164,3.31,13,47.66897105,-122.3401451,8/25/21 0:00,51,0,0,1,0,1,1,0,0,0,1,0,0,1,0,1,No pass,https://www.wta.org/go-hiking/hikes/green-lake-1
Gas Line Trail,Issaquah Alps,Tiger Mountain,1,roundtrip,,,2,2,47.4823299,-121.9241794,11/3/21 0:00,9,0,0,0,0,0,0,0,0,0,0,0,0,1,0,0,Discover Pass,https://www.wta.org/go-hiking/hikes/gas-line-trail
Fort Steilacoom Park,Puget Sound and Islands,Seattle-Tacoma Area,4.1,trails,154,376,5,3,47.17741803,-122.5591689,8/1/21 0:00,29,0,0,1,0,0,0,1,1,0,0,0,0,1,0,1,No pass,https://www.wta.org/go-hiking/hikes/fort-steilacoom-park
Tahoma Creek Suspension Bridge - Emerald Ridge Loop,Mount Rainier Area,SW - Longmire/Paradise,14.2,roundtrip,3100,5600,3.12,8,46.8379564,-121.89704,8/18/21 0:00,81,0,0,0,0,0,0,0,1,0,0,0,0,0,1,0,National Park Pass,https://www.wta.org/go-hiking/hikes/emerald-ridge
Fifteenmile Creek Railroad Grade,Issaquah Alps,Tiger Mountain,4.8,roundtrip,,,1.75,4,47.48850625,-121.9287747,5/15/21 0:00,29,0,0,0,0,0,0,0,0,0,0,0,0,0,0,0,Discover Pass,https://www.wta.org/go-hiking/hikes/fifteenmile-creek-railroad-grade
Explorer Falls,North Cascades,Mountain Loop Highway,,,,,3.36,14,,,8/22/21 0:00,126,0,0,0,0,0,0,0,0,0,0,0,0,0,0,0,Discover Pass,https://www.wta.org/go-hiking/hikes/explorer-falls
Federation Forest State Park,Mount Rainier Area,Chinook Pass - Hwy 410,5,roundtrip,150,1800,3.25,12,47.15295296,-121.7005348,9/25/21 0:00,104,0,1,0,0,1,0,0,0,0,0,0,0,1,0,1,Discover Pass,https://www.wta.org/go-hiking/hikes/federation-forest
Dumbbell Lake,South Cascades,White Pass/Cowlitz River Valley,13.5,roundtrip,2070,5600,1.67,6,46.64505,-121.382367,10/8/21 0:00,29,0,1,1,0,1,1,1,1,0,1,0,1,1,0,1,Northwest Forest Pass,https://www.wta.org/go-hiking/hikes/dumbbell-lake-1
Ira Spring Connector Trail,Snoqualmie Region,North Bend Area,,,,,3.5,2,47.42994533,-121.5911865,9/9/21 0:00,43,0,0,0,0,0,0,0,0,0,0,0,0,0,0,0,Discover Pass,https://www.wta.org/go-hiking/hikes/dirty-harrys-connector
Dirty Harry's Museum,Snoqualmie Region,Snoqualmie Pass,5.6,roundtrip,2800,3100,4,4,47.4342752,-121.6326678,10/30/21 0:00,107,0,0,0,0,0,0,0,0,0,0,0,0,1,0,0,Discover Pass,https://www.wta.org/go-hiking/hikes/dirty-harrys-museum
Cramer Mountain Loop,South Cascades,White Pass/Cowlitz River Valley,14,roundtrip,1800,6000,3,5,46.64473333,-121.3822667,6/28/20 0:00,10,0,0,1,0,0,1,1,0,0,1,0,0,0,0,0,Northwest Forest Pass,https://www.wta.org/go-hiking/hikes/cramer-mountain-loop
Copper Mountain,Mount Rainier Area,SW - Longmire/Paradise,,,3868,6280,0,0,46.7973304,-121.8275986,7/16/20 0:00,4,0,0,0,0,0,0,0,1,1,0,1,0,0,0,0,,https://www.wta.org/go-hiking/hikes/copper-mountain-2
Cultus Mountain,Puget Sound and Islands,Bellingham Area,,,,,4,2,48.42487198,-122.1420479,4/23/21 0:00,5,0,0,0,0,0,0,0,0,0,0,0,0,0,0,0,,https://www.wta.org/go-hiking/hikes/cultus-mountain-mt-vernon-area
Damon Point,Southwest Washington,Long Beach Area,4,roundtrip,,10,3.27,11,46.946416,-124.133289,10/14/21 0:00,67,1,0,0,0,0,0,0,1,0,1,0,0,1,0,1,No pass,https://www.wta.org/go-hiking/hikes/damon-point-state-park
Griffiths-Priday State Park - Copalis River Spit,Southwest Washington,Long Beach Area,4,roundtrip,40,25,4,6,47.114137,-124.177076,3/12/21 0:00,38,1,1,0,0,0,0,0,0,0,1,0,0,1,0,1,Discover Pass,https://www.wta.org/go-hiking/hikes/copalis-river-spit
Carter Falls,Mount Rainier Area,SW - Longmire/Paradise,2.8,roundtrip,660,3650,3.83,18,46.76620587,-121.792717,10/19/21 0:00,147,0,1,0,1,1,0,1,1,0,0,0,0,0,1,1,National Park Pass,https://www.wta.org/go-hiking/hikes/carter-falls
Capitol State Forest - Capitol Peak,Olympic Peninsula,Olympia,9,roundtrip,1300,2659,3.38,8,46.9731078,-123.1380272,4/18/21 0:00,36,0,0,0,0,0,0,0,1,1,0,0,0,0,0,0,Discover Pass,https://www.wta.org/go-hiking/hikes/capitol-peak
Boulder Lake,Central Cascades,Stevens Pass - West,13.8,roundtrip,2140,3700,2.5,4,47.9703119,-121.5560001,6/23/21 0:00,47,0,0,1,0,1,0,0,0,0,0,0,1,0,0,0,Discover Pass,https://www.wta.org/go-hiking/hikes/boulder-lake
Bus Trail,Issaquah Alps,Tiger Mountain,0.7,roundtrip,200,500,3.25,4,47.5297428,-121.9961387,11/3/21 0:00,142,0,0,0,0,0,0,0,0,0,0,0,0,0,0,1,Discover Pass,https://www.wta.org/go-hiking/hikes/bus-trail
Bootleg Trail,Issaquah Alps,Tiger Mountain,4.6,roundtrip,1300,2200,3.2,5,47.5303687,-121.9436016,5/22/21 0:00,76,0,0,0,0,0,0,0,0,0,0,0,0,0,0,0,Discover Pass,https://www.wta.org/go-hiking/hikes/bootleg
Bonneville Trail,Issaquah Alps,Tiger Mountain,1.2,roundtrip,,,3,4,47.52950464,-122.0086925,3/20/21 0:00,21,0,0,0,0,0,0,0,0,0,0,0,0,0,0,0,Discover Pass,https://www.wta.org/go-hiking/hikes/bonneville-trail
Brink Trail,Issaquah Alps,Tiger Mountain,1.2,roundtrip,,,3.75,4,47.5295808,-121.9957352,9/10/21 0:00,21,0,0,0,0,0,0,0,0,0,0,0,0,1,0,1,Discover Pass,https://www.wta.org/go-hiking/hikes/brink-trail
Blake Island State Park,Puget Sound and Islands,Seattle-Tacoma Area,8,roundtrip,190,190,0,0,47.54231774,-122.4829044,7/21/21 0:00,17,1,0,0,0,1,1,0,1,0,1,0,1,1,0,1,No pass,https://www.wta.org/go-hiking/hikes/blake-island-state-park
Island Crest Park,Puget Sound and Islands,Seattle-Tacoma Area,1.6,roundtrip,150,325,0,0,47.55145366,-122.2234771,8/22/21 0:00,8,0,0,0,0,1,1,1,0,0,1,0,0,1,0,1,No pass,https://www.wta.org/go-hiking/hikes/island-crest-park
Leecher Mountain Lookout,North Cascades,Methow/Sawtooth,2.4,roundtrip,,5008,0,0,48.2508545,-120.0021493,7/10/21 0:00,24,0,0,0,0,0,0,0,0,0,0,0,0,0,0,1,Northwest Forest Pass,https://www.wta.org/go-hiking/hikes/leecher-mountain-lookout
Herringbone Hill,North Cascades,Methow/Sawtooth,2.2,roundtrip,544,3152,0,0,48.46506313,-120.2612342,10/27/21 0:00,3,0,0,0,0,0,0,0,1,1,1,0,0,0,0,1,,https://www.wta.org/go-hiking/hikes/herringbone-hill
Walupt Lake Loop,South Cascades,,15.3,roundtrip,1650,5712,0,0,46.42308949,-121.4735492,8/11/19 0:00,2,0,0,0,0,0,0,1,1,0,1,1,0,1,0,0,,https://www.wta.org/go-hiking/hikes/walupt-lake-loop
Loch Katrine,Snoqualmie Region,North Bend Area,7.2,roundtrip,1500,3000,3,1,47.64924805,-121.6457316,5/22/21 0:00,9,0,1,1,0,0,0,1,1,0,1,0,0,0,0,0,,https://www.wta.org/go-hiking/hikes/loch-katrine
Osprey Park,Central Cascades,Stevens Pass - West,2,trails,,,4,1,47.86908826,-121.8215894,2/15/21 0:00,9,0,1,0,0,0,0,0,0,0,1,0,0,0,0,1,No pass,https://www.wta.org/go-hiking/hikes/osprey-park
Growden Heritage Site,Eastern Washington,Okanogan Highlands/Kettle River Range,0.2,roundtrip,,,0,0,48.58534,-118.304655,8/27/17 0:00,1,0,0,0,0,0,0,0,0,0,0,0,0,0,0,0,No pass,https://www.wta.org/go-hiking/hikes/growden-heritage-site
Trillium Community Forest,Puget Sound and Islands,Whidbey Island,7,trails,100,260,3,1,48.05010133,-122.5678968,10/18/20 0:00,4,0,0,1,0,0,1,1,0,0,1,0,0,1,0,1,No pass,https://www.wta.org/go-hiking/hikes/trillium-community-forest-land
Northway Trail,Mount Rainier Area,Chinook Pass - Hwy 410,11,roundtrip,2900,6800,0,0,46.96153796,-121.4830184,9/5/21 0:00,9,0,0,0,0,0,0,1,1,1,0,0,0,1,0,0,,https://www.wta.org/go-hiking/hikes/northway-trail
Evergreen State College - Organic Farm Trail,Olympic Peninsula,Olympia,0.8,roundtrip,60,230,0,0,47.07081897,-122.9782803,4/23/19 0:00,1,0,0,0,0,0,1,1,0,0,1,0,0,1,0,1,,https://www.wta.org/go-hiking/hikes/evergreen-state-college-organic-farm-trail
Old Timers' Horse Trail,Eastern Washington,Selkirk Range,,,800,2600,0,0,48.471124,-117.601336,11/3/20 0:00,2,0,0,0,0,0,0,0,0,0,0,0,0,0,0,0,,https://www.wta.org/go-hiking/hikes/old-timers-horse-trail
Colquhoun Peak,Mount Rainier Area,Chinook Pass - Hwy 410,1.2,roundtrip,630,5173,2,1,47.132167,-121.4598,7/5/21 0:00,14,0,0,0,0,0,0,0,0,1,0,0,0,1,0,1,No pass,https://www.wta.org/go-hiking/hikes/colquhon-peak
Hidden Cove Trail,Puget Sound and Islands,Seattle-Tacoma Area,2,trails,,,0,0,47.691655,-122.529067,,0,0,0,0,0,0,0,0,0,0,0,0,0,1,0,1,No pass,https://www.wta.org/go-hiking/hikes/hidden-cove-trail
South Skookum Lake Trail,Eastern Washington,Selkirk Range,1.38,roundtrip,,,0,0,,,8/22/19 0:00,3,0,0,1,0,0,0,1,1,0,0,0,0,1,0,1,No pass,https://www.wta.org/go-hiking/hikes/south-skookum-lake-trail
Chelan Gorge Trail,Central Washington,Wenatchee,2,roundtrip,150,,0,0,,,11/18/19 0:00,1,0,1,1,0,0,0,0,0,0,0,0,0,1,0,0,No pass,https://www.wta.org/go-hiking/hikes/chelan-gorge-trail
Salsbury Point Park,Puget Sound and Islands,Seattle-Tacoma Area,,,,,0,0,47.856502,-122.607126,,0,1,0,0,0,0,0,0,0,0,0,0,0,0,0,1,No pass,https://www.wta.org/go-hiking/hikes/salsbury-point-park
Lily Point Marine Park and Reserve,Puget Sound and Islands,Bellingham Area,1.5,roundtrip,,,0,0,48.97652928,-123.0616077,6/1/14 0:00,1,1,0,0,0,1,0,0,0,0,1,0,0,0,0,1,No pass,https://www.wta.org/go-hiking/hikes/lily-point-marine-park-and-reserve
Whidbey Institute,Puget Sound and Islands,Whidbey Island,4.5,trails,420,420,0,0,47.97806369,-122.4103281,8/25/20 0:00,4,0,0,1,0,1,0,1,0,0,1,0,0,0,1,1,No pass,https://www.wta.org/go-hiking/hikes/whidbey-institute
My Neighborhood,Puget Sound and Islands,,,,,,5,1,47.71487255,-122.1793842,9/7/21 0:00,93,0,0,0,0,0,0,0,0,0,0,0,0,0,0,0,No pass,https://www.wta.org/go-hiking/hikes/my-neighborhood
Chair Peak,Snoqualmie Region,Snoqualmie Pass,9,roundtrip,,6244,0,0,47.41535481,-121.4433131,9/4/21 0:00,8,0,0,0,0,0,0,0,1,1,0,1,0,1,0,0,Northwest Forest Pass,https://www.wta.org/go-hiking/hikes/chair-peak
Dandy Pass Road Snowshoe,Snoqualmie Region,Snoqualmie Pass,4,roundtrip,700,2840,0,0,47.30629384,-121.3170909,12/13/20 0:00,2,0,0,0,0,0,0,0,1,0,0,0,0,0,0,0,Sno-Parks Permit,https://www.wta.org/go-hiking/hikes/dandy-pass-road-snowshoe
Peterson Lake Natural Area,Puget Sound and Islands,Seattle-Tacoma Area,2,roundtrip,,,0,0,47.43743502,-122.083683,7/21/20 0:00,2,0,0,1,0,0,0,0,0,0,1,0,0,0,0,1,,https://www.wta.org/go-hiking/hikes/peterson-lake-natural-area
Green River Trail,Puget Sound and Islands,Seattle-Tacoma Area,19.7,one-way,,50,2.67,3,47.46803584,-122.2492933,8/22/21 0:00,10,0,1,0,0,0,1,0,0,0,1,0,0,1,0,1,No pass,https://www.wta.org/go-hiking/hikes/green-river-trail
Hurley Road Snowshoe,Central Cascades,Blewett Pass,,,,,0,0,,,1/10/21 0:00,3,0,0,0,0,0,0,0,0,0,0,0,0,0,0,0,,https://www.wta.org/go-hiking/hikes/hurley-road-snowshoe
Ragged Ridge,Eastern Washington,Spokane Area/Coeur d'Alene,15.1,roundtrip,3000,5300,5,1,47.90459717,-117.1029498,6/20/21 0:00,7,0,0,0,0,1,1,1,1,1,1,1,0,0,0,0,Discover Pass,https://www.wta.org/go-hiking/hikes/ragged-ridge
Rooster Comb,Central Washington,Wenatchee,,,,,0,0,,,6/14/21 0:00,3,0,0,0,0,0,0,0,0,0,0,0,0,0,0,0,,https://www.wta.org/go-hiking/hikes/rooster-comb
Jacobson Preserve,Central Washington,Wenatchee,2,roundtrip,340,1440,0,0,47.41131669,-120.352639,10/9/21 0:00,14,0,0,0,0,0,0,1,0,1,1,0,0,1,0,1,No pass,https://www.wta.org/go-hiking/hikes/jacobson-preserve
Zig Zag Lake,South Cascades,Mount St. Helens,1,roundtrip,730,4000,3.17,6,45.84643333,-122.1111667,7/25/19 0:00,7,0,0,1,0,1,0,0,0,0,1,0,0,0,0,0,Northwest Forest Pass,https://www.wta.org/go-hiking/hikes/zig-zag-lake
Windy Ridge Trail,South Cascades,Mount St. Helens,4,roundtrip,200,4200,3.38,8,46.24995,-122.13615,9/13/21 0:00,36,0,0,0,0,0,0,1,1,0,0,1,0,0,1,0,Northwest Forest Pass,https://www.wta.org/go-hiking/hikes/windy-ridge
Windy Pass,Central Cascades,Leavenworth Area,8,one-way,2800,7200,5,3,47.53596428,-120.8135819,8/22/21 0:00,58,0,0,1,0,0,1,0,1,0,0,1,1,0,1,0,Northwest Forest Pass,https://www.wta.org/go-hiking/hikes/windy-pass-1
Bertha May and Granite Lakes,South Cascades,White Pass/Cowlitz River Valley,3,roundtrip,900,4400,5,6,46.705,-121.9319,8/14/21 0:00,62,0,0,1,0,0,1,0,1,0,0,0,0,1,0,1,Northwest Forest Pass,https://www.wta.org/go-hiking/hikes/bertha-may-and-granite-lakes
Mill Gulch Trail,Snoqualmie Region,Cle Elum Area,5.2,roundtrip,900,3600,0,0,47.25624327,-120.7095391,5/8/21 0:00,2,0,0,0,0,0,0,0,0,0,0,0,0,0,0,0,,https://www.wta.org/go-hiking/hikes/mill-gulch-trail
Frog Mountain,Puget Sound and Islands,Seattle-Tacoma Area,,,,,0,0,,,7/9/21 0:00,3,0,0,0,0,0,0,0,0,0,0,0,0,0,0,0,,https://www.wta.org/go-hiking/hikes/frog-mountain-1
Millwood Interurban Trail,Eastern Washington,Spokane Area/Coeur d'Alene,1,roundtrip,,,0,0,47.68581688,-117.2933435,8/24/19 0:00,1,0,0,0,0,0,0,0,0,0,0,0,0,0,0,1,No pass,https://www.wta.org/go-hiking/hikes/millwood-interurban-trail
Llandover Woods Greenspace,Puget Sound and Islands,Seattle-Tacoma Area,0.7,roundtrip,60,170,4,1,47.73411376,-122.361926,2/3/21 0:00,13,0,0,0,0,0,1,0,0,0,0,0,0,1,0,0,No pass,https://www.wta.org/go-hiking/hikes/llandover-woods-greenspace
Antoine Peak Conservation Area - Summit Loop,Eastern Washington,Spokane Area/Coeur d'Alene,5.5,roundtrip,600,,0,0,47.71884307,-117.1967324,3/3/21 0:00,21,0,0,0,0,0,0,0,1,1,0,0,0,1,0,0,,https://www.wta.org/go-hiking/hikes/antoine-peak-conservation-area-summit-loop
Columbia Breaks Fire Interpretive Trail,North Cascades,Methow/Sawtooth,0.5,roundtrip,,,3,1,47.694587,-120.209132,8/20/19 0:00,6,0,0,0,0,0,0,0,0,0,0,0,0,0,0,0,,https://www.wta.org/go-hiking/hikes/columbia-breaks-fire-interprative-trail
South Hill Bluff,Eastern Washington,Spokane Area/Coeur d'Alene,23,trails,350,2340,0,0,47.628567,-117.429667,1/23/21 0:00,6,0,0,0,0,0,0,1,0,0,1,0,0,1,0,1,No pass,https://www.wta.org/go-hiking/hikes/south-hill-bluff
Lake Margaret,Central Cascades,,26.2,one-way,10800,7300,0,0,,,9/26/20 0:00,9,0,0,1,0,1,1,0,1,0,0,1,0,0,0,0,Northwest Forest Pass,https://www.wta.org/go-hiking/hikes/lake-margaret
Pickhandle Gap Loop,Mount Rainier Area,Chinook Pass - Hwy 410,8,roundtrip,2000,6200,0,0,46.93693116,-121.4692372,10/3/21 0:00,31,0,0,1,0,0,0,1,1,0,0,1,0,1,0,0,,https://www.wta.org/go-hiking/hikes/pickhandle-gap-loop
Chopaka Lake,North Cascades,Pasayten,,,,,5,1,48.91706335,-119.7021486,10/13/19 0:00,1,0,0,1,0,0,0,1,1,0,1,1,1,0,0,0,No pass,https://www.wta.org/go-hiking/hikes/chopaka-lake
Burnt Bridge Creek - Middle Section,Southwest Washington,Vancouver Area,7.6,roundtrip,120,,0,0,45.634499,-122.6150354,,0,0,0,0,0,0,1,1,0,0,1,0,0,1,0,1,No pass,https://www.wta.org/go-hiking/hikes/burnt-creek-bridge-middle-section
Burnt Bridge Creek - Eastern Section,Southwest Washington,Vancouver Area,3.6,roundtrip,20,,0,0,45.6359179,-122.580157,4/22/21 0:00,3,0,0,0,0,0,1,1,0,0,1,0,0,1,0,1,No pass,https://www.wta.org/go-hiking/hikes/burnt-creek-bridge-eastern-section
Lacamas Park - Round Lake to Lower Falls,Southwest Washington,Vancouver Area,3.4,roundtrip,190,200,4.67,3,45.6039446,-122.4071275,5/6/21 0:00,11,0,0,1,1,0,0,0,0,0,0,0,0,1,0,1,No pass,https://www.wta.org/go-hiking/hikes/lacamas-park-round-lake-to-lower-falls
Burnt Bridge Creek - Stewart Glen Section,Southwest Washington,Vancouver Area,2.6,roundtrip,,50,0,0,45.6733026,-122.6902811,1/29/21 0:00,3,0,1,0,0,0,1,1,0,0,0,0,0,1,0,1,,https://www.wta.org/go-hiking/hikes/burnt-bridge-creek-stewart-glen-section
Swauk Meadows Snowshoe,Central Cascades,Blewett Pass,6.7,roundtrip,,,2.5,2,47.33147169,-120.6119227,3/6/21 0:00,10,0,0,0,0,0,0,0,1,0,1,0,0,1,0,0,Sno-Parks Permit,https://www.wta.org/go-hiking/hikes/swauk-meadows-snowshoe
Redmond Ridge Trail,Puget Sound and Islands,Seattle-Tacoma Area,4.34,one-way,,,0,0,47.69199907,-122.0339227,8/8/18 0:00,1,0,0,0,0,0,0,0,0,0,0,0,0,1,0,1,No pass,https://www.wta.org/go-hiking/hikes/redmond-ridge-trail
Grass Lake Nature Park,Olympic Peninsula,Olympia,1.3,roundtrip,,,2,1,47.05321292,-122.9601538,6/25/18 0:00,3,0,0,1,0,0,1,0,0,0,1,0,0,0,1,1,No pass,https://www.wta.org/go-hiking/hikes/grass-lake-nature-park
Dirtyface Ridge Snowshoe,Central Cascades,Leavenworth Area,1.5,roundtrip,400,,0,0,47.80879216,-120.7147522,2/20/21 0:00,11,0,0,1,1,0,0,0,1,0,0,0,0,1,0,1,Northwest Forest Pass,https://www.wta.org/go-hiking/hikes/dirty-face-ridge-snowshoe
Sperry Peak,North Cascades,Mountain Loop Highway,6.4,roundtrip,3800,6120,0,0,48.0249788,-121.4779115,9/4/21 0:00,4,0,0,1,0,0,0,0,1,1,0,1,0,0,0,0,Northwest Forest Pass,https://www.wta.org/go-hiking/hikes/sperry-peak
Anacortes Community Forest Lands - Big Beaver Pond,Puget Sound and Islands,Whidbey Island,2.5,roundtrip,175,450,3,1,48.49158277,-122.6363462,10/13/21 0:00,40,0,0,1,0,0,0,0,0,0,1,0,0,1,0,1,No pass,https://www.wta.org/go-hiking/hikes/big-beaver-pond
Tammi Wilson Memorial Trail,Puget Sound and Islands,Bellingham Area,0.82,one-way,,,0,0,48.46003255,-122.3391098,8/18/16 0:00,1,0,1,0,0,0,0,0,1,0,0,0,0,1,0,1,No pass,https://www.wta.org/go-hiking/hikes/tammi-wilson-memorial-trail-gages-slough-trail
Windy Ridge and Plains of Abraham,South Cascades,Mount St. Helens,8,roundtrip,2000,4850,4,11,46.248917,-122.13615,9/13/21 0:00,44,0,0,0,0,0,0,1,1,0,0,1,0,0,1,0,Northwest Forest Pass,https://www.wta.org/go-hiking/hikes/windy-ridge-and-plains-of-abraham
Red Mountain,Snoqualmie Region,Cle Elum Area,12.6,roundtrip,3900,5722,0,0,,,10/21/21 0:00,13,0,0,1,0,1,1,0,1,0,0,1,0,0,0,0,Northwest Forest Pass,https://www.wta.org/go-hiking/hikes/red-mountain-3
Historic Columbia River Highway State Trail - Mitchell Point,Southwest Washington,Columbia River Gorge - OR,3,roundtrip,200,,0,0,45.6903457,-121.7721713,1/23/21 0:00,2,0,1,0,0,0,0,0,0,0,0,0,0,1,0,1,Oregon State Parks Day-Use,https://www.wta.org/go-hiking/hikes/historic-columbia-river-highway-state-trail
West Granite Mountain,Snoqualmie Region,Snoqualmie Pass,,,,,3.2,5,47.39794251,-121.4866447,5/16/21 0:00,50,0,0,0,0,0,0,0,0,0,0,0,0,0,0,0,Northwest Forest Pass,https://www.wta.org/go-hiking/hikes/west-granite-mountain
Esperance Park,Puget Sound and Islands,Seattle-Tacoma Area,0.5,roundtrip,50,420,0,0,,,7/12/17 0:00,1,0,0,1,0,0,1,0,0,0,1,0,0,1,0,1,No pass,https://www.wta.org/go-hiking/hikes/esperance-park
Blue Stilly,North Cascades,Mountain Loop Highway,,,,30,0,0,48.195589,-122.193793,2/29/20 0:00,3,0,1,0,0,0,0,0,0,0,1,0,0,1,0,1,Discover Pass,https://www.wta.org/go-hiking/hikes/blue-stilly
Lake Ballinger Park,Puget Sound and Islands,Seattle-Tacoma Area,,,,,3,2,47.78974476,-122.3292561,6/5/20 0:00,8,0,0,1,0,0,1,0,0,0,0,0,0,1,0,1,No pass,https://www.wta.org/go-hiking/hikes/lake-ballinger-park
Palisades Park,Eastern Washington,Spokane Area/Coeur d'Alene,7,roundtrip,500,2200,0,0,47.66715124,-117.4876468,11/29/19 0:00,12,0,0,0,0,0,1,1,1,0,1,0,0,1,0,1,No pass,https://www.wta.org/go-hiking/hikes/palisades-park
Ape Caves,South Cascades,Mount St. Helens,2.8,roundtrip,350,2450,4.54,56,46.10831667,-122.21145,9/25/21 0:00,225,0,0,0,0,0,0,0,0,0,0,0,0,0,1,0,Northwest Forest Pass,https://www.wta.org/go-hiking/hikes/ape-cave
Titlow Park,Puget Sound and Islands,Seattle-Tacoma Area,2,trails,,,3,1,47.247787,-122.549911,7/11/20 0:00,4,1,0,1,0,0,0,0,0,0,0,0,0,1,0,1,No pass,https://www.wta.org/go-hiking/hikes/titlow-park
Weowna Park,Puget Sound and Islands,Seattle-Tacoma Area,3.5,roundtrip,600,320,4.33,6,47.60354441,-122.112329,10/12/21 0:00,63,0,0,0,0,1,1,0,0,0,1,0,0,1,0,1,No pass,https://www.wta.org/go-hiking/hikes/weona-park-bellevue
Albert Camp,North Cascades,Pasayten,8.6,roundtrip,2900,7700,1.6,5,48.9069201,-119.8271961,8/14/20 0:00,7,0,0,0,0,0,0,1,0,1,1,1,0,0,0,0,Northwest Forest Pass,https://www.wta.org/go-hiking/hikes/albert-camp
Sunrise Peak,North Cascades,Pasayten,,,,,0,0,,,8/5/16 0:00,1,0,0,0,0,0,0,0,0,0,0,0,0,0,0,0,,https://www.wta.org/go-hiking/hikes/sunrise-peak-pasayten
Billy Goat Loop,North Cascades,Pasayten,50,roundtrip,5000,7500,5,1,48.78854503,-120.3178024,7/8/21 0:00,5,0,0,1,0,0,1,1,1,1,1,1,1,0,0,0,Northwest Forest Pass,https://www.wta.org/go-hiking/hikes/billy-goat-loop
Hoh River Trail to Blue Glacier,Olympic Peninsula,Pacific Coast,37,roundtrip,3700,4300,4.91,11,47.8594905,-123.9343548,10/31/21 0:00,109,0,1,1,1,1,0,1,1,0,1,0,0,0,1,0,National Park Pass,https://www.wta.org/go-hiking/hikes/hoh-river-blue-glacier
Meadowbrook Farm,Snoqualmie Region,North Bend Area,4.85,trails,,,3,2,47.50852095,-121.7989773,10/3/21 0:00,18,0,0,0,0,0,0,1,1,0,1,0,0,1,0,1,No pass,https://www.wta.org/go-hiking/hikes/meadowbrook-farm
Cedar Creek Park,Puget Sound and Islands,Seattle-Tacoma Area,4,roundtrip,300,,3,1,47.37580214,-122.0593929,7/27/21 0:00,9,0,0,0,0,1,1,0,0,0,0,0,0,1,0,1,,https://www.wta.org/go-hiking/hikes/cedar-creek-park
McLaughlin Canyon Trail,Eastern Washington,Okanogan Highlands/Kettle River Range,3,roundtrip,200,,4,1,48.65125542,-119.4382954,4/21/21 0:00,10,0,1,0,0,0,1,1,0,0,1,0,0,0,0,1,No pass,https://www.wta.org/go-hiking/hikes/mclaughlin-canyon-trail
Edgar Rock,Mount Rainier Area,Chinook Pass - Hwy 410,3.5,roundtrip,900,,3.27,11,46.91975451,-121.056041,6/19/21 0:00,30,0,1,0,0,1,0,1,0,0,1,0,0,0,0,1,No pass,https://www.wta.org/go-hiking/hikes/edgar-rock
Longfellow Creek Legacy Trail,Puget Sound and Islands,Seattle-Tacoma Area,4.2,one-way,,,2,3,47.51999755,-122.3697138,5/15/21 0:00,4,0,1,0,0,0,1,0,0,0,1,0,0,1,0,1,No pass,https://www.wta.org/go-hiking/hikes/longfellow-creek
Elbow Peak,Snoqualmie Region,Salmon La Sac/Teanaway,11,roundtrip,3740,5710,2.38,8,47.29531667,-120.9649667,7/3/21 0:00,35,0,0,0,0,0,0,1,1,1,0,0,0,0,0,0,Discover Pass,https://www.wta.org/go-hiking/hikes/elbow-peak
Yellow Hill,Snoqualmie Region,Salmon La Sac/Teanaway,7.4,roundtrip,2827,5527,2.5,8,47.29553083,-120.9641075,8/31/21 0:00,50,0,0,0,0,0,0,1,1,0,0,0,0,0,0,0,Discover Pass,https://www.wta.org/go-hiking/hikes/yellow-hill
Klonaqua Lakes,Central Cascades,Leavenworth Area,10,one-way,2700,5200,3,5,47.61240018,-120.9499038,8/2/21 0:00,29,0,1,1,1,1,0,0,1,0,1,0,1,1,0,0,Northwest Forest Pass,https://www.wta.org/go-hiking/hikes/klonaqua-lakes
Snowall Cradle Lake,Central Cascades,Leavenworth Area,9.1,one-way,2700,6100,3,4,,,7/19/21 0:00,22,0,1,1,0,0,0,0,0,0,0,1,0,1,0,0,Northwest Forest Pass,https://www.wta.org/go-hiking/hikes/snowall-cradle-lake
French Creek,Central Cascades,Leavenworth Area,14.4,one-way,3200,6100,0,0,47.6294,-120.9653,8/2/21 0:00,41,0,1,0,0,0,0,0,1,0,1,1,0,1,0,0,Northwest Forest Pass,https://www.wta.org/go-hiking/hikes/french-creek-2
Kraus Ridge,South Cascades,Mount St. Helens,6.2,roundtrip,1570,2370,2,4,46.464933,-121.897383,8/6/19 0:00,4,0,0,0,0,1,1,0,0,0,1,1,0,0,1,1,Northwest Forest Pass,https://www.wta.org/go-hiking/hikes/kraus-ridge
South Creek,North Cascades,Methow/Sawtooth,,,,,2.67,3,,,5/22/21 0:00,20,0,0,0,0,0,0,0,0,0,0,0,0,0,0,0,,https://www.wta.org/go-hiking/hikes/south-creek
Company Creek,Central Cascades,Entiat Mountains/Lake Chelan,11,one-way,5400,6600,2.75,4,48.35222796,-120.7294035,7/24/20 0:00,5,0,1,0,0,0,0,0,1,1,0,1,0,0,0,0,No pass,https://www.wta.org/go-hiking/hikes/company-creek
Downey Creek,North Cascades,Mountain Loop Highway,13.2,roundtrip,1280,2400,2.75,8,48.25953333,-121.2229333,3/3/21 0:00,82,0,1,0,0,1,0,0,0,0,0,0,1,0,0,0,Northwest Forest Pass,https://www.wta.org/go-hiking/hikes/downey-creek
Sulphur Mountain,North Cascades,Mountain Loop Highway,10,roundtrip,4200,6000,3.4,5,48.244667,-121.188833,3/3/21 0:00,59,0,0,0,0,1,0,1,1,1,0,0,0,0,0,0,Northwest Forest Pass,https://www.wta.org/go-hiking/hikes/sulphur-mountain
Sulphur Creek,North Cascades,Mountain Loop Highway,3.6,roundtrip,900,2250,3.57,7,48.24983333,-121.1936167,9/6/20 0:00,37,0,1,0,0,1,0,0,0,0,0,0,0,0,0,0,,https://www.wta.org/go-hiking/hikes/sulphur-creek
Interlaken Park,Puget Sound and Islands,Seattle-Tacoma Area,1.6,roundtrip,200,325,3.5,4,47.63567439,-122.3038073,8/30/20 0:00,7,0,0,0,0,0,1,1,1,0,0,0,0,1,0,1,No pass,https://www.wta.org/go-hiking/hikes/interlaken-park
Mouth of the Tucannon,Eastern Washington,Palouse and Blue Mountains,2.6,roundtrip,80,580,2.33,3,46.54112989,-118.1585008,5/25/20 0:00,4,0,1,0,0,0,0,0,0,0,1,0,0,1,0,0,No pass,https://www.wta.org/go-hiking/hikes/mouth-of-the-tucannon
Cady Creek,Central Cascades,Stevens Pass - East,5.2,roundtrip,1300,4300,2.8,5,47.85861228,-120.9636784,10/1/21 0:00,45,0,0,0,0,0,0,0,1,0,0,1,0,1,0,1,Northwest Forest Pass,https://www.wta.org/go-hiking/hikes/cady-creek
Two Dollar Trail,Puget Sound and Islands,Bellingham Area,3.4,roundtrip,550,1100,4.5,4,48.67522,-122.4833,8/3/21 0:00,51,0,0,1,1,1,1,0,0,0,0,0,0,1,0,1,Discover Pass,https://www.wta.org/go-hiking/hikes/two-dollar-trail
Little Mountain Park - Darvill Loop,Puget Sound and Islands,Bellingham Area,4.4,roundtrip,860,934,3,3,48.38474257,-122.3095448,9/19/21 0:00,39,0,0,0,0,0,1,0,1,1,1,0,0,1,0,1,No pass,https://www.wta.org/go-hiking/hikes/little-mountain-park-darvill-trail
Little Mountain Park - Up Quick,Puget Sound and Islands,Bellingham Area,0.2,one-way,241,,2.33,3,48.38877894,-122.3028939,5/8/21 0:00,15,0,0,0,0,0,0,0,0,0,0,0,0,1,0,1,No pass,https://www.wta.org/go-hiking/hikes/little-mountain-park-up-quick
Blackbird Island - Waterfront Park,Central Cascades,Leavenworth Area,2,roundtrip,100,1100,5,2,47.59391689,-120.6626621,5/8/21 0:00,17,0,1,0,0,0,0,0,0,0,0,0,0,1,0,1,No pass,https://www.wta.org/go-hiking/hikes/blackbird-island-waterfront-park
Moss Lake,Puget Sound and Islands,Seattle-Tacoma Area,2.5,roundtrip,,,3,4,47.6928142,-121.8503537,7/30/21 0:00,47,0,0,1,0,0,0,0,0,0,0,0,0,1,0,1,No pass,https://www.wta.org/go-hiking/hikes/moss-lake
Coyote Wall - Moab/Maui Loop,Southwest Washington,Columbia River Gorge - WA,3.8,roundtrip,850,900,4,2,45.6993461,-121.4148305,4/18/21 0:00,32,0,1,0,0,0,0,1,0,0,0,0,0,1,0,1,No pass,https://www.wta.org/go-hiking/hikes/maui-falls-co5
Lemah Meadow,Snoqualmie Region,Salmon La Sac/Teanaway,1,one-way,200,3250,3,4,47.462291,-121.2809809,10/2/21 0:00,19,0,1,0,0,0,0,1,1,0,0,0,0,1,0,0,Northwest Forest Pass,https://www.wta.org/go-hiking/hikes/lemah-meadow
Goat Creek,Mount Rainier Area,Chinook Pass - Hwy 410,9.8,roundtrip,3400,6473,4,1,46.91691229,-121.2336856,7/30/21 0:00,24,0,1,1,0,0,0,0,0,1,0,1,1,1,0,0,Northwest Forest Pass,https://www.wta.org/go-hiking/hikes/goat-creek
Bainbridge Island Japanese American Exclusion Memorial,Puget Sound and Islands,Seattle-Tacoma Area,,,,,4,4,47.61540598,-122.5102281,4/16/21 0:00,3,0,0,0,0,1,0,0,0,0,0,0,0,0,0,0,No pass,https://www.wta.org/go-hiking/hikes/bainbridge-island-japanese-american-exclusion-memorial
Toutle Trail - Kalama Horse Camp to Red Rock Pass,South Cascades,Mount St. Helens,4.8,one-way,1300,3280,0,0,46.14294982,-122.3244327,10/31/20 0:00,5,0,1,1,0,1,0,0,0,0,0,1,0,1,0,0,Northwest Forest Pass,https://www.wta.org/go-hiking/hikes/toutle-trail-kalama-horse-camp-to-red-rock-pass
Kalaloch - Browns Point,Olympic Peninsula,Pacific Coast,4,roundtrip,25,25,3.88,8,47.61285,-124.3761667,8/14/21 0:00,52,1,0,0,0,0,0,0,0,0,0,0,0,1,0,1,No pass,https://www.wta.org/go-hiking/hikes/kalaloch-browns-point
Blanchard Hill - Alternate Incline Trail,Puget Sound and Islands,Bellingham Area,4.2,roundtrip,1000,1890,5,1,48.61716526,-122.3855495,10/18/21 0:00,28,0,0,0,0,0,0,0,1,0,0,0,0,1,0,1,Discover Pass,https://www.wta.org/go-hiking/hikes/incline-alternate-blanchard-hill
Goat Mountain and Deadman's Lake,South Cascades,Mount St. Helens,11.2,roundtrip,2400,5025,3.82,11,46.356333,-122.070033,9/5/21 0:00,69,0,0,1,0,0,0,1,1,1,0,0,0,0,0,0,Northwest Forest Pass,https://www.wta.org/go-hiking/hikes/goat-mountain-1
Fishtrap Lake - Scroggie Loop,Eastern Washington,Spokane Area/Coeur d'Alene,3,roundtrip,200,2260,2.5,4,47.33346041,-117.777729,10/5/19 0:00,9,0,0,0,0,0,0,1,0,0,1,0,0,1,0,1,No pass,https://www.wta.org/go-hiking/hikes/fishtrap-lake-scroggie-loop
Fallsview Canyon (Falls View),Olympic Peninsula,Hood Canal,1.5,roundtrip,300,400,3.43,7,47.78955,-122.9282833,8/27/21 0:00,72,0,1,0,1,0,1,0,0,0,1,0,0,1,0,1,No pass,https://www.wta.org/go-hiking/hikes/fallsview-canyon-1
Squire Creek Pass via Eight-mile Trail,North Cascades,Mountain Loop Highway,5.4,roundtrip,2350,4107,4.17,6,48.1573474,-121.6092789,10/16/21 0:00,126,0,0,0,0,1,0,1,1,0,0,1,0,1,0,0,Northwest Forest Pass,https://www.wta.org/go-hiking/hikes/eight-mile-squire-creek-pass
Deception Pass,Central Cascades,Stevens Pass - West,28,roundtrip,1100,4500,3.44,9,47.54432242,-121.0973167,9/5/21 0:00,91,0,1,1,0,0,1,0,1,0,0,1,0,1,0,0,Northwest Forest Pass,https://www.wta.org/go-hiking/hikes/deception-pass
Deep Lake,South Cascades,Mount Adams Area,5,roundtrip,900,5100,3,5,46.04797783,-121.7548496,8/23/21 0:00,11,0,0,1,0,1,0,0,1,0,0,1,1,1,0,1,Northwest Forest Pass,https://www.wta.org/go-hiking/hikes/deep-lake-2
CCC Road: Lower Section,Snoqualmie Region,North Bend Area,8,roundtrip,550,1650,4,3,47.48644,-121.7103195,7/24/21 0:00,36,0,0,0,0,0,0,0,0,0,0,0,0,0,0,0,Discover Pass,https://www.wta.org/go-hiking/hikes/ccc-road-lower-trailhead
Catherine Creek - Natural Arch,Southwest Washington,Columbia River Gorge - WA,2.1,roundtrip,250,500,4,1,45.71085432,-121.3612461,10/4/21 0:00,30,0,1,0,0,0,1,1,0,0,0,0,0,1,0,1,No pass,https://www.wta.org/go-hiking/hikes/catherine-creek-natural-arch
Cedar Downs,Puget Sound and Islands,Seattle-Tacoma Area,4,roundtrip,,,4.17,6,47.373867,-122.055672,2/6/21 0:00,22,0,0,0,0,1,1,0,0,0,1,0,0,1,0,1,No pass,https://www.wta.org/go-hiking/hikes/cedar-downs
Bird Mountain Loop,South Cascades,Mount Adams Area,10.25,roundtrip,1875,5230,3.11,9,46.0471,-121.75615,9/6/19 0:00,26,0,0,1,0,0,0,0,1,1,0,0,1,1,0,0,Northwest Forest Pass,https://www.wta.org/go-hiking/hikes/bird-mountain-loop
Augspurger Trail,Southwest Washington,Columbia River Gorge - WA,15.5,roundtrip,4400,3000,2.75,4,45.6991229,-121.7062141,5/17/21 0:00,24,0,1,0,0,0,0,1,1,0,0,0,0,1,0,0,No pass,https://www.wta.org/go-hiking/hikes/augspurger-trail
Barnes Creek,Olympic Peninsula,Northern Coast,10,roundtrip,3300,5090,3.14,7,48.0578167,-123.7884333,8/5/21 0:00,45,0,1,0,1,1,0,0,0,0,0,0,0,0,1,0,National Park Pass,https://www.wta.org/go-hiking/hikes/barnes-creek
Angry Mountain,South Cascades,,16.8,roundtrip,3409,6049,3.25,8,46.51840318,-121.5943945,9/16/21 0:00,19,0,0,0,0,0,0,1,1,1,0,1,0,1,0,0,No pass,https://www.wta.org/go-hiking/hikes/angry-mountain
Port Gamble Forest - Beaver Pond Trail,Olympic Peninsula,Kitsap Peninsula,2,roundtrip,,,3,2,47.84022497,-122.5876647,9/18/21 0:00,13,0,0,1,0,0,0,0,0,0,1,0,0,1,0,1,No pass,https://www.wta.org/go-hiking/hikes/port-gamble-forest-beaver-pond-trail
Big Rock Trail,Puget Sound and Islands,Seattle-Tacoma Area,1.25,roundtrip,,,0,0,47.60024781,-122.0480432,8/26/21 0:00,6,0,0,0,0,0,0,1,0,0,0,0,0,1,0,1,No pass,https://www.wta.org/go-hiking/hikes/big-rock-trail
Dishman Hills Conservation Area - Flying L Trail,Eastern Washington,Spokane Area/Coeur d'Alene,2.2,one-way,660,2788,0,0,47.6193623,-117.2736225,11/2/21 0:00,4,0,0,0,0,0,1,1,0,0,1,0,0,1,0,1,No pass,https://www.wta.org/go-hiking/hikes/dishman-hills-conservation-area-philips-creek-flying-l-trail
Dosewallips State Park - Maple Valley Loop,Olympic Peninsula,Hood Canal,1.5,roundtrip,,,4,1,47.69048406,-122.9052393,7/22/21 0:00,44,0,0,0,0,1,1,0,0,0,1,0,0,1,0,1,Discover Pass,https://www.wta.org/go-hiking/hikes/dosewallips-state-park-maple-valley-loop
Whittaker Wilderness Peak,Issaquah Alps,Cougar Mountain,3,roundtrip,1228,1598,2.2,5,47.52731865,-122.0645079,9/25/21 0:00,17,0,0,0,0,0,0,0,1,1,0,0,0,0,0,0,No pass,https://www.wta.org/go-hiking/hikes/whittaker-wilderness-peak
Tubal Cain Mine,Olympic Peninsula,Hood Canal,7.2,roundtrip,1600,4600,3.38,8,47.88607504,-123.0913353,10/30/21 0:00,181,0,1,0,0,1,0,0,0,0,0,0,1,1,0,0,Northwest Forest Pass,https://www.wta.org/go-hiking/hikes/tull-canyon
Tiger Mountain Trail North,Issaquah Alps,Tiger Mountain,15.5,roundtrip,2400,2500,2.75,8,47.52965,-121.9957,11/3/21 0:00,92,0,0,0,0,0,1,1,0,0,1,0,0,1,0,0,Discover Pass,https://www.wta.org/go-hiking/hikes/tiger-mountain-trail-north
Tatoosh Lookout,South Cascades,White Pass/Cowlitz River Valley,10.4,roundtrip,4100,6400,3.67,6,46.71314935,-121.7158556,9/21/21 0:00,75,0,0,0,0,1,0,1,1,1,0,1,0,1,0,0,No pass,https://www.wta.org/go-hiking/hikes/tatoosh-lookout
Tatoosh Ridge,South Cascades,White Pass/Cowlitz River Valley,6.2,roundtrip,2900,5775,3.73,11,46.71313464,-121.7159843,9/21/21 0:00,122,0,0,1,0,1,0,1,1,1,0,1,0,1,0,0,No pass,https://www.wta.org/go-hiking/hikes/tatoosh
Waptus Lake,Snoqualmie Region,Salmon La Sac/Teanaway,,,900,3100,4,4,47.3837308,-121.1001429,9/12/21 0:00,48,0,0,0,0,0,0,0,0,0,0,0,0,0,0,0,,https://www.wta.org/go-hiking/hikes/waptus-lake
Mystery Bay State Park,Olympic Peninsula,Pacific Coast,,,,,0,0,,,1/16/15 0:00,1,0,0,0,0,0,0,0,0,0,0,0,0,0,0,0,,https://www.wta.org/go-hiking/hikes/mystery-bay-state-park
Surveyors Lake Snowshoe,Snoqualmie Region,Snoqualmie Pass,,,,,4,1,47.39069222,-121.3964238,3/8/21 0:00,4,0,0,0,0,0,0,0,0,0,0,0,0,0,0,0,,https://www.wta.org/go-hiking/hikes/surveyors-lake-snowshoe
Pebble Creek,Mount Rainier Area,SW - Longmire/Paradise,,,,,4,1,,,9/11/21 0:00,19,0,0,0,0,0,0,0,0,0,0,0,0,0,0,0,,https://www.wta.org/go-hiking/hikes/pebble-creek-hike
Old Miners Trail,Issaquah Alps,Cougar Mountain,,,,,0,0,,,1/26/21 0:00,5,0,0,0,0,0,0,0,0,0,0,0,0,0,0,0,,https://www.wta.org/go-hiking/hikes/old-miners-trail-c-11
Joyride,Issaquah Alps,Tiger Mountain,,,,,0,0,,,4/24/21 0:00,14,0,0,0,0,0,0,0,0,0,0,0,0,0,0,0,,https://www.wta.org/go-hiking/hikes/joyride
La Rush/Bear Lakes,North Cascades,North Cascades Highway - Hwy 20,,,,,0,0,48.50545964,-121.2796211,9/7/21 0:00,9,0,0,0,0,0,0,0,0,0,0,0,0,0,0,0,,https://www.wta.org/go-hiking/hikes/la-rush-bear-lakes
Bear Lake,South Cascades,Mount Adams Area,,,,,4,1,,,7/8/21 0:00,5,0,0,0,0,0,0,0,0,0,0,0,0,0,0,0,,https://www.wta.org/go-hiking/hikes/bear-lake-4
Silver Creek,Mount Rainier Area,Chinook Pass - Hwy 410,,,,,0,0,,,9/25/21 0:00,35,0,0,0,0,0,0,0,0,0,0,0,0,0,0,0,,https://www.wta.org/go-hiking/hikes/silver-creek
Round Butte,Eastern Washington,Palouse and Blue Mountains,,,,,0,0,,,7/20/19 0:00,2,0,0,0,0,0,0,0,0,0,0,0,0,0,0,0,,https://www.wta.org/go-hiking/hikes/round-butte
Olympic Adventure Route,Olympic Peninsula,Northern Coast,,,,,4,1,48.12183962,-123.7836993,7/9/21 0:00,6,0,0,0,0,0,0,0,0,0,0,0,0,0,0,0,,https://www.wta.org/go-hiking/hikes/olympic-adventure-route
Lakes Basin Loop,Eastern Washington,Palouse and Blue Mountains,,,,,3,1,45.2809586,-117.212776,9/6/19 0:00,3,0,0,0,0,0,0,0,0,0,0,0,0,0,0,0,,https://www.wta.org/go-hiking/hikes/lakes-basin-loop-eagle-cap-wilderness
Timothy Lake Loop,Southwest Washington,Columbia River Gorge - OR,,,,,0,0,,,8/5/14 0:00,1,0,0,0,0,0,0,0,0,0,0,0,0,0,0,0,,https://www.wta.org/go-hiking/hikes/timothy-lake-loop
UW Bothell-Cascadia Community College Wetlands,Puget Sound and Islands,Seattle-Tacoma Area,1,roundtrip,,,1,1,,,12/23/19 0:00,3,0,1,0,0,0,0,0,0,0,1,0,0,0,0,0,No pass,https://www.wta.org/go-hiking/hikes/uw-bothell-cascadia-community-college-wetlands
Oxbow Regional Park,Southwest Washington,Columbia River Gorge - WA,,,,,0,0,,,8/3/14 0:00,1,0,0,0,0,0,0,0,0,0,0,0,0,0,0,0,,https://www.wta.org/go-hiking/hikes/oxbow-regional-park
Sahale Peak,North Cascades,,,,,,0,0,48.48202502,-121.0804081,7/25/21 0:00,28,0,0,0,0,0,0,0,0,0,0,0,0,0,0,0,,https://www.wta.org/go-hiking/hikes/sahale-peak
Mount Leona,Eastern Washington,Okanogan Highlands/Kettle River Range,6,roundtrip,1500,6474,0,0,48.765367,-118.487967,7/2/17 0:00,3,0,0,0,0,0,0,0,0,0,0,0,0,0,0,0,,https://www.wta.org/go-hiking/hikes/mount-leona
Colchuck Peak,Central Cascades,Leavenworth Area,,,,,0,0,,,7/4/21 0:00,29,0,0,0,0,0,0,0,0,0,0,0,0,0,0,0,,https://www.wta.org/go-hiking/hikes/colchuck-peak
Stiletto Lake,North Cascades,Methow/Sawtooth,12.6,roundtrip,3200,6810,4,1,,,10/7/21 0:00,21,0,0,1,1,0,1,1,1,0,0,0,0,0,1,0,Northwest Forest Pass,https://www.wta.org/go-hiking/hikes/stiletto-lake
Fortune Peak via Esmeralda Basin (Esmerelda),Snoqualmie Region,Salmon La Sac/Teanaway,,,,,0,0,47.4291889,-120.9377177,7/18/21 0:00,28,0,0,0,0,0,0,0,0,0,0,0,0,0,0,0,Northwest Forest Pass,https://www.wta.org/go-hiking/hikes/fortune-peak-via-esmeralda-basin-esmerelda-1394
Razorback Mountain Snowshoe,North Cascades,North Cascades Highway - Hwy 20,,,,,0,0,,,5/1/13 0:00,1,0,0,0,0,0,0,0,0,0,0,0,0,0,0,0,,https://www.wta.org/go-hiking/hikes/razorback-mountain-snowshoe
Corax Peak,North Cascades,Methow/Sawtooth,,,,,0,0,,,8/13/11 0:00,1,0,0,0,0,0,0,0,0,0,0,0,0,0,0,0,,https://www.wta.org/go-hiking/hikes/corax-peak
Cabinet Peak,North Cascades,North Cascades Highway - Hwy 20,,,,,0,0,48.63867434,-120.8512656,5/7/16 0:00,2,0,0,0,0,0,0,0,0,1,0,0,0,0,0,0,,https://www.wta.org/go-hiking/hikes/cabinet-peak
Soda Springs,Mount Rainier Area,Chinook Pass - Hwy 410,,,,,0,0,,,7/3/21 0:00,6,0,0,0,0,0,0,0,0,0,0,0,0,0,0,0,,https://www.wta.org/go-hiking/hikes/soda-springs-trail-975
The Eaglet,North Cascades,Mountain Loop Highway,,,,,0,0,,,3/23/14 0:00,5,0,0,0,0,0,0,0,0,0,0,0,0,0,0,0,,https://www.wta.org/go-hiking/hikes/the-eaglet
Moss Lake Loop,Mount Rainier Area,Chinook Pass - Hwy 410,0.75,roundtrip,,2400,0,0,47.0351251,-121.5613549,5/16/21 0:00,14,0,0,1,0,1,0,0,0,0,0,0,0,0,0,1,Northwest Forest Pass,https://www.wta.org/go-hiking/hikes/moss-lake-loop
Blowdown Mountain Road,Snoqualmie Region,North Bend Area,,,,,1.5,4,47.53068999,-121.6927359,10/26/21 0:00,40,0,0,0,0,0,0,0,0,0,0,0,0,0,0,0,,https://www.wta.org/go-hiking/hikes/blowdown-mountain-road
Kangaroo Temple,North Cascades,North Cascades Highway - Hwy 20,,,,,2,1,48.51433012,-120.6424999,6/2/18 0:00,5,0,0,0,0,0,0,0,0,0,0,0,0,0,0,0,,https://www.wta.org/go-hiking/hikes/kangaroo-temple
Mutton Mountain,Mount Rainier Area,Chinook Pass - Hwy 410,,,,,0,0,47.001916,-121.519038,8/29/21 0:00,27,0,0,0,0,0,0,0,0,0,0,0,0,0,0,0,,https://www.wta.org/go-hiking/hikes/mutton-mountain
Cripple Creek Falls,Snoqualmie Region,Snoqualmie Pass,,,,,0,0,,,3/17/12 0:00,1,0,0,0,0,0,0,0,0,0,0,0,0,0,0,0,,https://www.wta.org/go-hiking/hikes/cripple-creek-falls
Lyman Lakes,Central Cascades,Entiat Mountains/Lake Chelan,21,roundtrip,2774,5983,3.44,9,48.19841251,-120.7745934,9/15/21 0:00,40,0,0,1,1,1,0,1,1,0,1,1,1,1,0,0,No pass,https://www.wta.org/go-hiking/hikes/lyman-lakes
Log Flume,Eastern Washington,Okanogan Highlands/Kettle River Range,0.4,roundtrip,,,3.2,5,48.5816664,-118.2337174,9/10/19 0:00,3,0,0,0,0,0,0,0,0,0,0,0,0,0,0,0,,https://www.wta.org/go-hiking/hikes/log-flume
Mad Lake,Central Cascades,Entiat Mountains/Lake Chelan,12.2,one-way,1800,,3.67,3,47.8410068,-120.6045038,7/13/20 0:00,7,0,1,1,0,0,0,1,0,0,0,0,0,0,0,0,Northwest Forest Pass,https://www.wta.org/go-hiking/hikes/mad-lake
Lake Julius and Loch Eileen,Central Cascades,Stevens Pass - East,15.9,roundtrip,3815,5735,2.5,6,47.72828333,-120.8436667,10/17/21 0:00,39,0,0,1,1,0,1,1,0,0,0,0,0,0,0,0,Northwest Forest Pass,https://www.wta.org/go-hiking/hikes/loch-eileen
Lower Mad River Valley,Central Cascades,Entiat Mountains/Lake Chelan,14.9,one-way,2500,2000,3.5,6,47.75888333,-120.4271333,6/1/21 0:00,54,0,1,0,0,1,0,1,0,0,1,0,1,1,0,0,Northwest Forest Pass,https://www.wta.org/go-hiking/hikes/lower-mad-river
Lakeview Ranch,Central Washington,Potholes Region,5.3,roundtrip,450,1780,3.75,4,47.413833,-118.741233,3/8/20 0:00,5,0,0,1,0,0,0,0,0,0,1,0,0,1,0,0,No pass,https://www.wta.org/go-hiking/hikes/lakeview-ranch
Libby Lake,North Cascades,Methow/Sawtooth,10.2,roundtrip,3210,7640,3.38,8,48.27593333,-120.2900333,9/25/21 0:00,37,0,0,1,0,0,1,0,1,0,0,1,0,1,0,0,No pass,https://www.wta.org/go-hiking/hikes/libby-lake
Little Giant Pass,Central Cascades,Stevens Pass - East,10,roundtrip,4000,6409,4.09,11,48.02583333,-120.8286,10/8/21 0:00,124,0,1,0,0,0,0,1,1,0,0,1,0,0,0,0,No pass,https://www.wta.org/go-hiking/hikes/little-giant
Lanham Lake,Central Cascades,Stevens Pass - East,3.2,roundtrip,1140,4140,2.83,6,47.77163333,-121.0136333,8/24/21 0:00,52,0,0,1,0,0,0,0,1,0,0,0,0,0,0,0,Northwest Forest Pass,https://www.wta.org/go-hiking/hikes/lanham-lake
Leroy Creek High Route,Central Cascades,,,,,,2.71,7,48.06864483,-120.8413482,10/3/21 0:00,75,0,0,1,1,0,1,1,1,0,0,1,0,0,0,0,,https://www.wta.org/go-hiking/hikes/leroy-creek-high-route
Lenore Lake Caves,Central Washington,Grand Coulee,1.5,roundtrip,200,1300,3.57,7,47.51737324,-119.4937698,6/16/21 0:00,69,0,0,0,0,0,0,1,0,0,1,0,0,0,0,0,Discover Pass,https://www.wta.org/go-hiking/hikes/lenore-lake-caves
Lake Elizabeth,Central Cascades,Stevens Pass - West,0.75,roundtrip,69,2890,2.67,6,47.70121419,-121.5182033,10/16/21 0:00,49,0,0,0,0,0,1,1,0,0,1,0,1,1,0,1,No pass,https://www.wta.org/go-hiking/hikes/lake-elizabeth
Klahhane Ridge,Olympic Peninsula,Northern Coast,5,roundtrip,1700,6050,4.5,26,47.98708333,-123.4608667,10/8/21 0:00,222,0,0,0,0,0,0,1,1,1,1,1,0,0,1,0,National Park Pass,https://www.wta.org/go-hiking/hikes/klahhane-ridge
Lake Constance,Olympic Peninsula,Hood Canal,4.4,roundtrip,3300,4800,3.83,18,47.729617,-123.141733,9/11/21 0:00,92,0,1,1,1,1,0,0,1,0,0,0,1,0,1,0,"National Park Pass, Northwest Forest Pass",https://www.wta.org/go-hiking/hikes/lake-constance
