,TITLE,REGION,SPECIFIC REGION,DISTANCE,DIST_TYPE,GAIN,HIGHEST,RATING,RATING_COUNT,lat,lon,MOST_RECENT_REPORT_DATE,REPORT_COUNT,COAST,RIVERS,LAKES,WATERFALLS,OLD GROWTH,FALL FOLIAGE,WILDFLOWERS/MEADOWS,MOUNTAIN VIEWS,SUMMITS,WILDLIFE,RIDGES,ESTABLISHED CAMPSITES,DOGS ALLOWED ON LEASH,NO DOGS,KID FRIENDLY,REQUIRED PASSES,URL
0,Sawtooth Ridge,Eastern Washington,Palouse and Blue Mountains,8.0,roundtrip,500.0,5500.0,2.67,3,46.06178361,-117.8441325,6/9/21 0:00,11,0,0,0,0,0,0,1,1,0,0,1,0,0,0,1,No pass,https://www.wta.org/go-hiking/hikes/sawtooth-ridge-blue-mtns
1,Rattlesnake Trail,Eastern Washington,Palouse and Blue Mountains,10.0,roundtrip,2900.0,5700.0,3.43,7,46.20433914,-117.7058244,11/7/21 0:00,26,0,0,0,0,0,0,1,1,1,0,1,1,1,0,0,No pass,https://www.wta.org/go-hiking/hikes/rattlesnake-trail
2,Oregon Butte,Eastern Washington,Palouse and Blue Mountains,6.0,roundtrip,987.0,6387.0,4.14,7,46.11833168,-117.7149653,6/5/21 0:00,50,0,0,0,0,0,0,1,1,1,1,1,1,1,0,0,Northwest Forest Pass,https://www.wta.org/go-hiking/hikes/oregon-butte
3,Mount Misery,Eastern Washington,Palouse and Blue Mountains,16.0,roundtrip,1000.0,6401.0,2.75,4,46.1182006,-117.7143596,5/31/21 0:00,28,0,0,0,0,0,0,1,1,1,1,1,1,1,0,1,Northwest Forest Pass,https://www.wta.org/go-hiking/hikes/mount-misery
4,Dexter Ridge,Eastern Washington,Palouse and Blue Mountains,5.0,one-way,2547.0,5500.0,0.0,0,46.02152219,-117.7900136,7/7/19 0:00,2,0,1,0,0,0,0,0,0,0,0,0,0,0,0,0,Northwest Forest Pass,https://www.wta.org/go-hiking/hikes/dexter-ridge
5,Middle Tie Trail,Eastern Washington,Palouse and Blue Mountains,1.6,one-way,1200.0,5400.0,0.0,0,46.0949,-117.8469,5/31/20 0:00,1,0,0,0,0,0,0,0,0,0,0,0,0,0,0,0,"Northwest Forest Pass, Sno-Parks Permit",https://www.wta.org/go-hiking/hikes/middle-tie-trail-3240-to-middle-point-ridge-trail-3116
6,Grizzly Bear Ridge - Wenaha River - Slick Ear Loop,Eastern Washington,Palouse and Blue Mountains,20.0,roundtrip,1300.0,5400.0,0.0,0,46.06380388,-117.8028339,5/31/21 0:00,6,0,0,0,0,0,0,1,1,0,0,0,0,0,0,1,Northwest Forest Pass,https://www.wta.org/go-hiking/hikes/grizzly-bear-ridge-3103
7,Crooked Creek,Eastern Washington,Palouse and Blue Mountains,17.0,one-way,3800.0,5700.0,3.0,4,46.15376009,-117.6511393,3/25/21 0:00,19,0,1,0,0,1,0,1,1,0,1,0,1,1,0,0,,https://www.wta.org/go-hiking/hikes/crooked-creek
8,Tucannon River - Rattlesnake Loop,Eastern Washington,Palouse and Blue Mountains,21.0,roundtrip,2700.0,,0.0,0,46.18901234,-117.619354,8/29/19 0:00,4,0,1,0,0,0,1,1,1,1,1,1,1,1,0,0,Northwest Forest Pass,https://www.wta.org/go-hiking/hikes/tucannon-river-rattlesnake-loop
9,Packer's Trail,Eastern Washington,Palouse and Blue Mountains,5.5,one-way,2600.0,4800.0,0.0,0,46.02233135,-117.5465816,6/11/16 0:00,1,0,1,0,0,0,0,1,1,0,0,1,0,1,0,0,Northwest Forest Pass,https://www.wta.org/go-hiking/hikes/packers-trail
10,Middle Point Ridge,Eastern Washington,Palouse and Blue Mountains,8.0,roundtrip,2648.0,5724.0,0.0,0,46.1359,-117.808667,6/16/21 0:00,24,0,0,0,0,0,0,0,1,0,1,1,0,0,0,0,,https://www.wta.org/go-hiking/hikes/middle-point-ridge
11,Three Forks,Eastern Washington,Palouse and Blue Mountains,6.6,roundtrip,3100.0,4700.0,0.0,0,,,5/24/20 0:00,3,0,1,0,0,0,0,1,1,0,0,0,0,1,0,0,Northwest Forest Pass,https://www.wta.org/go-hiking/hikes/three-forks-3133
12,Packers Trail - Mount Misery Loop,Eastern Washington,Palouse and Blue Mountains,45.0,roundtrip,9234.0,6387.0,0.0,0,46.1538,-117.6511,5/21/20 0:00,2,0,0,0,0,0,0,1,1,0,1,1,1,1,0,0,No pass,https://www.wta.org/go-hiking/hikes/packers-trail-mount-misery-loop
13,Turkey Creek,Eastern Washington,Palouse and Blue Mountains,8.0,roundtrip,2060.0,5300.0,4.25,4,,,7/23/19 0:00,11,0,1,0,0,1,1,0,0,0,1,0,0,1,0,0,Northwest Forest Pass,https://www.wta.org/go-hiking/hikes/turkey-creek
14,Tucannon River Canyon,Eastern Washington,Palouse and Blue Mountains,8.0,roundtrip,1200.0,3680.0,2.2,5,46.188583,-117.625317,5/31/21 0:00,17,0,1,0,0,0,0,0,0,0,1,0,0,0,0,0,Northwest Forest Pass,https://www.wta.org/go-hiking/hikes/tucannon-river
15,Third Creek,Eastern Washington,Palouse and Blue Mountains,34.0,roundtrip,2000.0,,0.0,0,46.0887778,-117.6276668,6/21/13 0:00,1,0,1,0,0,1,0,0,0,0,0,0,1,0,0,0,Northwest Forest Pass,https://www.wta.org/go-hiking/hikes/third-creek-3100
16,Table Rock,Eastern Washington,Palouse and Blue Mountains,1.2,roundtrip,400.0,6250.0,4.5,2,46.03041856,-117.9112753,6/13/21 0:00,7,0,0,0,0,0,0,0,1,1,0,0,0,1,0,0,No pass,https://www.wta.org/go-hiking/hikes/table-rock-squaw-peak
17,Smooth Ridge,Eastern Washington,Palouse and Blue Mountains,9.4,roundtrip,2540.0,6529.0,3.4,5,46.11291501,-117.7455482,6/15/21 0:00,14,0,1,0,0,0,0,0,1,0,0,1,0,1,0,0,Northwest Forest Pass,https://www.wta.org/go-hiking/hikes/smooth-ridge
18,Cathedral Rock,Snoqualmie Region,Salmon La Sac/Teanaway,8.0,roundtrip,2290.0,5550.0,3.43,14,47.5434644,-121.0969905,10/16/21 0:00,225,0,0,1,0,1,1,1,1,1,1,1,1,1,0,0,Northwest Forest Pass,https://www.wta.org/go-hiking/hikes/cathedral-rock
19,Big Creek Trail,Snoqualmie Region,Cle Elum Area,9.0,roundtrip,2400.0,3700.0,0.0,0,47.1844,-121.1373,9/19/21 0:00,3,0,1,0,0,1,0,0,0,0,0,0,0,0,0,0,No pass,https://www.wta.org/go-hiking/hikes/big-creek-trail
20,Taneum Lake,Snoqualmie Region,Cle Elum Area,1.4,roundtrip,100.0,5400.0,4.0,1,47.061798,-121.0306907,10/9/21 0:00,3,0,0,1,0,1,0,0,0,0,0,0,0,1,0,1,No pass,https://www.wta.org/go-hiking/hikes/taneum-lake
21,Manastash Ridge,Central Washington,Yakima,16.7,one-way,4600.0,6245.0,3.62,13,47.075206,-121.083096,5/21/21 0:00,74,0,0,0,0,0,0,1,1,1,1,1,0,1,0,0,Northwest Forest Pass,https://www.wta.org/go-hiking/hikes/manastash-ridge
22,Granite Creek,Snoqualmie Region,Cle Elum Area,5.0,roundtrip,2600.0,4600.0,0.0,0,47.161729,-121.091218,5/31/21 0:00,11,0,1,0,0,0,0,1,1,0,0,0,0,1,0,0,No pass,https://www.wta.org/go-hiking/hikes/granite-creek-1
23,Manastash Lake,Central Washington,Yakima,8.0,roundtrip,2100.0,5063.0,3.89,9,47.0248288,-120.9406422,10/16/21 0:00,82,0,0,1,0,0,1,1,0,0,1,0,1,1,0,1,Northwest Forest Pass,https://www.wta.org/go-hiking/hikes/manastash-lake
24,Keenan Meadows,Central Washington,Yakima,3.1,one-way,,,3.33,3,,,,0,0,0,0,0,0,0,0,0,0,0,0,0,1,0,0,Northwest Forest Pass,https://www.wta.org/go-hiking/hikes/keenen-meadow
25,Fishhook Flat,Snoqualmie Region,Cle Elum Area,,,,,1.25,4,,,10/26/18 0:00,3,0,0,0,0,0,0,0,0,0,0,0,0,0,0,0,,https://www.wta.org/go-hiking/hikes/fishhook-flat
26,Shoestring Lake,Central Washington,Yakima,3.6,one-way,,,0.0,0,,,6/17/17 0:00,1,0,0,0,0,0,0,0,0,0,0,0,0,1,0,0,Northwest Forest Pass,https://www.wta.org/go-hiking/hikes/shoestring-lake-1385
27,Taneum Ridge,Snoqualmie Region,Cle Elum Area,12.1,one-way,3200.0,6080.0,3.5,4,47.1112943,-120.9359926,5/24/21 0:00,11,0,0,0,0,0,0,1,1,1,0,1,0,1,0,0,Northwest Forest Pass,https://www.wta.org/go-hiking/hikes/taneum-ridge
28,Angel's Rest-Devil's Rest Loop,Southwest Washington,Columbia River Gorge - OR,10.7,roundtrip,2770.0,2308.0,5.0,1,45.56026303,-122.1725821,10/10/19 0:00,11,0,1,0,1,0,0,0,0,1,0,0,0,1,0,0,No pass,https://www.wta.org/go-hiking/hikes/angels-rest-devils-rest
29,Siouxon Peak Loop,South Cascades,Dark Divide,15.3,roundtrip,5120.0,4170.0,0.0,0,45.9429912,-122.1853816,5/4/19 0:00,6,0,1,0,1,0,0,0,0,1,0,0,0,1,0,0,Northwest Forest Pass,https://www.wta.org/go-hiking/hikes/siouxon-peak-loop
30,Hells Basin,North Cascades,,,,,,4.25,4,,,9/5/21 0:00,1,0,0,0,0,0,0,0,0,0,0,0,0,0,0,0,,https://www.wta.org/go-hiking/hikes/hells-basin
31,Hereford Meadows,South Cascades,,,,,,3.5,4,,,10/4/21 0:00,1,0,0,0,0,0,0,0,0,0,0,0,0,0,0,0,,https://www.wta.org/go-hiking/hikes/hereford-meadows
32,Heather Lake Snowshoe,North Cascades,Mountain Loop Highway,4.6,roundtrip,1100.0,2440.0,3.67,9,48.0829067,-121.7740047,2/27/21 0:00,101,0,0,1,1,1,0,0,1,0,0,0,0,0,0,1,Northwest Forest Pass,https://www.wta.org/go-hiking/hikes/heather-lake-snowshoe
33,Hikers Trail,South Cascades,,,,,,3.5,4,,,,0,0,0,0,0,0,0,0,0,0,0,0,0,0,0,0,,https://www.wta.org/go-hiking/hikes/hikers-trail
34,Hogsback Route,North Cascades,,,,,,3.0,4,,,,0,0,0,0,0,0,0,0,0,0,0,0,0,0,0,0,,https://www.wta.org/go-hiking/hikes/hogsback-route
35,High Bridge,South Cascades,,,,,,3.8,5,,,5/23/20 0:00,5,0,0,0,0,0,0,0,0,0,0,0,0,0,0,0,,https://www.wta.org/go-hiking/hikes/high-bridge
36,Hindoo,South Cascades,,,,,,4.5,4,,,7/4/16 0:00,2,0,0,0,0,0,0,0,0,0,0,0,0,0,0,0,,https://www.wta.org/go-hiking/hikes/hindoo
37,Heather Basin,Olympic Peninsula,Hood Canal,,,,,2.8,5,,,8/7/20 0:00,9,0,0,0,0,0,0,0,0,0,0,0,0,0,0,0,,https://www.wta.org/go-hiking/hikes/heather-basin
38,Grassy Point,North Cascades,Mountain Loop Highway,,,,,2.25,4,,,9/26/18 0:00,8,0,0,0,0,0,0,0,0,0,0,0,0,0,0,0,,https://www.wta.org/go-hiking/hikes/grassy-point
39,Gold Run Pass,North Cascades,,,,,,3.67,6,,,7/14/17 0:00,1,0,0,0,0,0,0,0,0,0,0,0,0,0,0,0,,https://www.wta.org/go-hiking/hikes/gold-run-pass
40,Grant Purcell Falls,South Cascades,,,,,,3.67,6,46.67074604,-121.5874958,8/30/20 0:00,5,0,0,0,0,0,0,0,0,0,0,0,0,0,0,0,,https://www.wta.org/go-hiking/hikes/grant-purcell-falls
41,Gold Creek,Central Washington,Yakima,,,,,3.7,10,46.96101747,-121.0072031,6/19/21 0:00,14,0,0,0,0,0,0,0,0,0,0,0,0,0,0,0,,https://www.wta.org/go-hiking/hikes/gold-creek-2
42,Gooseberry Flat,Snoqualmie Region,,,,,,3.0,4,,,3/21/20 0:00,1,0,0,0,0,0,0,0,0,0,0,0,0,0,0,0,,https://www.wta.org/go-hiking/hikes/gooseberry-flat
43,Gold Creek,Olympic Peninsula,Hood Canal,,,,,3.0,6,47.9426,-123.0951167,6/4/21 0:00,38,0,0,0,0,0,0,0,0,0,0,0,0,0,0,0,,https://www.wta.org/go-hiking/hikes/gold-creek
44,Grand Pass,Olympic Peninsula,Northern Coast,,,,,3.71,7,47.91795463,-123.3756623,9/14/21 0:00,66,0,0,0,0,0,0,0,0,0,0,0,0,0,0,0,,https://www.wta.org/go-hiking/hikes/grand-pass
45,Hamilton Peak,South Cascades,,,,,,3.25,4,,,8/23/09 0:00,2,0,0,0,0,0,0,0,0,0,0,0,0,0,0,0,,https://www.wta.org/go-hiking/hikes/hamilton-peak
46,Greenwood Lake,South Cascades,,,,,,2.83,6,46.66640412,-121.8913284,8/22/21 0:00,10,0,0,0,0,0,0,0,0,0,0,0,0,0,0,0,,https://www.wta.org/go-hiking/hikes/greenwood-lake
47,Hamilton Buttes,South Cascades,Dark Divide,2.0,roundtrip,700.0,5722.0,3.0,4,46.39111667,-121.6179,9/8/18 0:00,5,0,0,0,0,0,0,0,1,0,0,0,0,0,0,0,Northwest Forest Pass,https://www.wta.org/go-hiking/hikes/hamilton-buttes
48,Goose Prairie,South Cascades,,,,,,4.0,5,,,7/25/20 0:00,11,0,0,0,0,0,0,0,0,0,0,0,0,0,0,0,,https://www.wta.org/go-hiking/hikes/goose-prairie
49,Gold Ridge,Central Cascades,,,,,,2.0,4,,,,0,0,0,0,0,0,0,0,0,0,0,0,0,0,0,0,,https://www.wta.org/go-hiking/hikes/gold-ridge
50,Greek Creek Basin,South Cascades,,,,,,3.5,4,,,9/9/02 0:00,1,0,0,0,0,0,0,0,0,0,0,0,0,0,0,0,,https://www.wta.org/go-hiking/hikes/greek-creek-basin
51,Goat Ridge,South Cascades,,,,,,3.12,8,46.46686667,-121.5265,10/2/21 0:00,76,0,0,0,0,0,0,0,0,0,0,0,0,0,0,0,,https://www.wta.org/go-hiking/hikes/goat-ridge
52,Gillette Ridge,Eastern Washington,,,,,,2.0,4,48.65848456,-117.7662277,6/30/20 0:00,4,0,0,0,0,0,0,0,0,0,0,0,0,0,0,0,,https://www.wta.org/go-hiking/hikes/gillette-ridge
53,Glacier Creek,Central Cascades,Stevens Pass - East,,,,,3.25,4,47.68976702,-120.7374115,7/5/12 0:00,3,0,0,0,0,0,0,0,0,0,0,0,0,0,0,0,,https://www.wta.org/go-hiking/hikes/glacier-creek
54,Fortune Creek-Van Epps,Snoqualmie Region,Salmon La Sac/Teanaway,,,,,1.5,4,47.4787395,-121.0019441,7/14/20 0:00,12,0,0,0,0,0,0,0,0,0,0,0,0,0,0,0,,https://www.wta.org/go-hiking/hikes/fortune-creek-van-epps
55,Gatton Creek,Olympic Peninsula,,,,,,2.0,5,,,3/29/21 0:00,5,0,0,0,0,0,0,0,0,0,0,0,0,0,0,0,,https://www.wta.org/go-hiking/hikes/gatton-creek
56,French Creek,Southwest Washington,Lewis River Region,7.0,roundtrip,700.0,3800.0,3.0,4,46.27781667,-121.79425,9/3/09 0:00,2,0,1,0,0,0,0,0,0,0,1,0,0,0,0,0,Northwest Forest Pass,https://www.wta.org/go-hiking/hikes/french-creek
57,French Ridge,Central Cascades,Leavenworth Area,,,,,2.6,5,47.61337176,-120.9497309,7/1/21 0:00,11,0,0,0,0,0,0,0,0,0,0,0,0,0,0,0,,https://www.wta.org/go-hiking/hikes/french-ridge
58,Glacier Peak,Central Cascades,,,,,,3.62,8,48.057843,-121.28821,9/4/21 0:00,63,0,0,0,0,0,0,0,0,0,0,0,0,0,0,0,,https://www.wta.org/go-hiking/hikes/glacier-peak
59,French Butte,South Cascades,,,,,,2.0,4,,,,0,0,0,0,0,0,0,0,0,0,0,0,0,0,0,0,,https://www.wta.org/go-hiking/hikes/french-butte
60,Skagit-Sauk Reach Trail,North Cascades,North Cascades Highway - Hwy 20,8.0,roundtrip,,300.0,0.0,0,48.48425392,-121.5960803,5/31/21 0:00,29,0,1,0,0,0,0,0,1,0,1,0,0,1,0,1,No pass,https://www.wta.org/go-hiking/hikes/skagit-sauk-reach-trail
61,Meadowdale Beach Park - Lunds Gulch,Puget Sound and Islands,Seattle-Tacoma Area,2.5,roundtrip,425.0,425.0,3.69,32,47.85583333,-122.3175167,8/27/21 0:00,227,1,1,0,0,0,0,0,1,0,0,0,0,1,0,0,No pass,https://www.wta.org/go-hiking/hikes/lunds-gulch-meadowdale-county-park
62,Mount Finlayson,Puget Sound and Islands,San Juan Islands,3.6,roundtrip,408.0,290.0,4.33,9,48.4637,-122.999117,7/12/21 0:00,27,1,0,0,0,0,0,1,0,1,1,0,0,1,0,1,No pass,https://www.wta.org/go-hiking/hikes/mount-finlayson
63,Bessemer Mountain,Snoqualmie Region,North Bend Area,13.0,roundtrip,4100.0,5028.0,3.18,11,47.51588333,-121.6134167,9/21/21 0:00,106,0,0,0,0,0,0,0,0,0,0,0,0,0,0,0,Discover Pass,https://www.wta.org/go-hiking/hikes/bessemer-mountain
64,Red Mountain (Commonwealth Basin),Snoqualmie Region,Snoqualmie Pass,8.0,roundtrip,2900.0,5890.0,3.64,11,47.4278288,-121.4134415,10/2/21 0:00,360,0,0,0,0,0,0,1,1,1,0,0,0,0,0,0,Northwest Forest Pass,https://www.wta.org/go-hiking/hikes/red-mountain-1
65,Imus Creek Trail,Central Cascades,Entiat Mountains/Lake Chelan,0.7,one-way,150.0,1340.0,0.0,0,,,10/2/21 0:00,5,0,0,0,1,0,1,0,1,0,0,0,0,0,1,1,No pass,https://www.wta.org/go-hiking/hikes/imus-creek-trail
66,Northwest Mox Peak,North Cascades,,,,,8407.0,0.0,0,48.948747,-121.262656,6/30/15 0:00,1,0,0,0,0,0,0,1,1,1,0,0,0,0,0,0,,https://www.wta.org/go-hiking/hikes/mox-peaks-northwest-peak
67,Southeast Mox Peak,North Cascades,,15.0,one-way,7400.0,8504.0,0.0,0,48.947222,-121.256945,6/30/15 0:00,1,0,0,0,0,0,0,1,1,1,0,1,0,0,0,0,,https://www.wta.org/go-hiking/hikes/mox-peaks-southeast-peak
68,Mount Redoubt,North Cascades,,,,,8956.0,0.0,0,48.9551304,-121.3867686,6/30/15 0:00,1,0,0,0,0,0,0,1,1,1,0,0,0,0,0,0,No pass,https://www.wta.org/go-hiking/hikes/mount-redoubt
69,Mount Rahm,North Cascades,,,,,8480.0,0.0,0,48.9977,-121.2306,6/30/15 0:00,1,0,0,0,0,0,0,0,0,0,0,0,0,0,0,0,No pass,https://www.wta.org/go-hiking/hikes/mount-rahm
70,Mount Spickard,North Cascades,,,,,8979.0,0.0,0,48.9698,-121.2406,6/30/15 0:00,1,0,0,0,0,0,0,1,1,1,0,1,0,0,0,0,No pass,https://www.wta.org/go-hiking/hikes/mount-spickard
71,Mount Formidable,North Cascades,,20.0,roundtrip,6100.0,8325.0,0.0,0,48.416177,-121.067504,5/30/15 0:00,1,0,0,0,0,0,0,0,1,1,0,0,0,0,0,0,,https://www.wta.org/go-hiking/hikes/mount-formidable
72,North Fork Bridge Creek,Central Cascades,Entiat Mountains/Lake Chelan,6.5,one-way,1473.0,4099.0,3.33,3,48.461381,-120.839744,9/3/20 0:00,9,0,1,1,1,0,0,1,1,0,1,0,1,0,1,0,Northwest Forest Pass,https://www.wta.org/go-hiking/hikes/north-fork-bridge-creek
73,Agnes Gorge,Central Cascades,Entiat Mountains/Lake Chelan,5.5,roundtrip,300.0,2000.0,3.0,5,48.38073333,-120.8402833,7/6/20 0:00,18,0,1,0,0,0,1,1,1,0,1,0,0,0,1,1,No pass,https://www.wta.org/go-hiking/hikes/agnes-gorge
74,Granite Mountain (Mount Baker),North Cascades,Mount Baker Area,,,,,0.0,0,47.39784897,-121.4865696,9/27/18 0:00,15,0,0,0,0,0,0,0,1,1,0,0,0,0,1,0,Northwest Forest Pass,https://www.wta.org/go-hiking/hikes/granite-mountain-mount-baker
75,Upper Stehekin Valley Road Trail,Central Cascades,Entiat Mountains/Lake Chelan,11.4,one-way,1100.0,2400.0,0.0,0,48.38072376,-120.8403095,10/9/20 0:00,18,0,1,0,1,1,1,1,1,0,0,0,1,0,1,0,No pass,https://www.wta.org/go-hiking/hikes/upper-stehekin-valley-road-trail
76,Rainbow Falls Mist Trail,Central Cascades,Entiat Mountains/Lake Chelan,0.25,roundtrip,30.0,1200.0,0.0,0,48.34221266,-120.7012638,10/9/20 0:00,9,0,0,0,1,1,1,0,0,0,0,0,0,0,1,1,No pass,https://www.wta.org/go-hiking/hikes/rainbow-falls-mist-trail
77,Howard Lake,Central Cascades,Entiat Mountains/Lake Chelan,3.3,roundtrip,600.0,2180.0,2.33,3,48.38006667,-120.8375667,8/11/20 0:00,4,0,0,1,0,1,1,0,1,0,1,0,0,0,1,1,No pass,https://www.wta.org/go-hiking/hikes/howard-lake
78,Goode Ridge,Central Cascades,Entiat Mountains/Lake Chelan,10.0,roundtrip,4400.0,6600.0,3.5,6,48.43260241,-120.8810577,7/26/18 0:00,5,0,0,0,0,0,0,0,1,0,1,1,0,0,1,0,No pass,https://www.wta.org/go-hiking/hikes/goode-ridge
79,Buckner Orchard Walk,Central Cascades,Entiat Mountains/Lake Chelan,1.6,roundtrip,,1200.0,0.0,0,48.34048286,-120.7024781,10/9/20 0:00,1,0,1,0,0,0,0,1,1,0,0,0,0,0,1,1,No pass,https://www.wta.org/go-hiking/hikes/buckner-orchard-walk
80,Stehekin River Trail,Central Cascades,Entiat Mountains/Lake Chelan,7.6,roundtrip,100.0,1200.0,4.0,4,48.34914777,-120.7223654,8/19/21 0:00,4,0,1,1,0,0,1,0,1,0,1,0,1,0,1,1,No pass,https://www.wta.org/go-hiking/hikes/stehekin-river-trail
81,Possession Point State Park,Puget Sound and Islands,Whidbey Island,3.0,roundtrip,,,4.0,2,47.90741051,-122.3773527,9/15/21 0:00,10,1,0,0,0,0,0,0,0,0,1,0,0,0,0,1,Discover Pass,https://www.wta.org/go-hiking/hikes/dorothy-cleveland-trail
82,Ancient Lakes,Central Washington,Potholes Region,12.0,roundtrip,625.0,1200.0,4.08,62,47.15186675,-119.9222913,9/19/21 0:00,522,0,0,1,1,0,0,1,0,0,1,0,1,1,0,1,Discover Pass,https://www.wta.org/go-hiking/hikes/ancient-lakes
83,Dingford Creek-Myrtle Lake,Snoqualmie Region,North Bend Area,11.0,roundtrip,2600.0,3800.0,3.64,11,47.5172007,-121.4552307,8/19/21 0:00,91,0,1,1,0,1,0,1,1,0,0,0,1,1,0,0,Northwest Forest Pass,https://www.wta.org/go-hiking/hikes/dingford-creek-myrtle-lake
84,Windy Peak,North Cascades,Pasayten,11.5,one-way,,,4.0,5,48.85548,-119.94525,10/23/21 0:00,24,0,0,0,0,0,1,0,0,1,0,1,0,1,0,0,Northwest Forest Pass,https://www.wta.org/go-hiking/hikes/windy-peak
85,Rocky Top and Cowiche Mountain,Central Washington,Yakima,20.0,trails,1148.0,2970.0,4.0,1,46.62777712,-120.6836531,10/29/21 0:00,30,0,0,0,0,0,0,1,1,0,1,1,0,1,0,1,No pass,https://www.wta.org/go-hiking/hikes/rocky-top
86,Wright Mountain,Snoqualmie Region,Snoqualmie Pass,11.4,roundtrip,,5430.0,4.22,9,47.44560433,-121.423529,10/19/21 0:00,109,0,0,1,0,0,0,0,1,1,0,0,0,0,0,0,Northwest Forest Pass,https://www.wta.org/go-hiking/hikes/wright-mountain
87,Lake Stuart,Central Cascades,Leavenworth Area,9.0,roundtrip,1665.0,5065.0,3.87,23,47.5277,-120.8209833,10/21/21 0:00,357,0,0,1,0,1,0,0,1,0,0,0,1,0,1,0,Northwest Forest Pass,https://www.wta.org/go-hiking/hikes/lake-stuart
88,Iron Bear - Teanaway Ridge,Central Cascades,Blewett Pass,6.5,roundtrip,1900.0,5489.0,4.0,37,47.35572395,-120.7176232,11/6/21 0:00,520,0,0,0,0,0,0,1,1,0,0,1,0,1,0,0,No pass,https://www.wta.org/go-hiking/hikes/iron-bear
89,Spider Gap - Buck Creek Pass Loop,Central Cascades,Stevens Pass - East,44.0,roundtrip,7200.0,7100.0,4.29,14,48.0673919,-120.8406278,10/3/21 0:00,138,0,0,1,0,0,1,1,1,0,1,1,1,0,0,0,Northwest Forest Pass,https://www.wta.org/go-hiking/hikes/spider-gap-buck-creek-pass-loop
90,Batey-Bould,Eastern Washington,,38.2,roundtrip,2000.0,4400.0,2.75,4,48.37111111,-117.3722222,2/15/18 0:00,1,0,0,0,0,0,0,1,1,0,1,0,0,0,0,0,No pass,https://www.wta.org/go-hiking/hikes/batey-bould
91,Grassy Top,Eastern Washington,Selkirk Range,7.6,roundtrip,1000.0,,3.0,4,48.79701248,-117.1320462,8/15/19 0:00,6,0,0,1,0,1,1,1,1,1,1,0,0,1,0,0,No pass,https://www.wta.org/go-hiking/hikes/grassy-top
92,Hidden Lake (Lake Wenatchee),Central Cascades,Stevens Pass - East,1.6,roundtrip,220.0,2320.0,3.4,15,47.82163333,-120.8063833,10/15/21 0:00,97,0,0,1,0,1,0,0,0,0,0,0,1,0,0,1,Northwest Forest Pass,https://www.wta.org/go-hiking/hikes/hidden-lake-lake-wenatchee
93,Wildside Trail-De Leo Wall,Issaquah Alps,Cougar Mountain,4.2,roundtrip,489.0,1122.0,2.74,19,47.53483333,-122.1288,5/5/21 0:00,177,0,0,0,0,0,0,1,1,0,1,0,0,1,0,1,No pass,https://www.wta.org/go-hiking/hikes/wildside-trail-de-leo-wall
94,Yakima Greenway,Central Washington,Yakima,10.0,roundtrip,100.0,1130.0,3.75,4,46.62495492,-120.5322397,2/13/20 0:00,6,0,1,1,0,0,1,0,1,0,1,0,0,1,0,1,No pass,https://www.wta.org/go-hiking/hikes/yakima-greenway
95,Windy Pass,North Cascades,Pasayten,7.0,roundtrip,1300.0,6900.0,3.71,14,48.73215,-120.6751167,10/3/21 0:00,58,0,0,0,0,0,0,1,1,0,0,1,0,1,0,1,Northwest Forest Pass,https://www.wta.org/go-hiking/hikes/windy-pass
96,Wolf Creek,Olympic Peninsula,Northern Coast,16.2,roundtrip,3800.0,5100.0,3.0,4,47.97040481,-123.5036445,8/22/21 0:00,12,0,1,0,0,0,1,0,1,0,1,0,0,0,1,0,National Park Pass,https://www.wta.org/go-hiking/hikes/wolf-creek-1
97,White Mountain via Kettle Crest Trail South,Eastern Washington,Okanogan Highlands/Kettle River Range,28.0,roundtrip,1500.0,6921.0,3.2,5,48.60737639,-118.4781075,5/23/20 0:00,8,0,0,0,0,0,0,0,1,1,0,0,0,1,0,0,Northwest Forest Pass,https://www.wta.org/go-hiking/hikes/white-mountain
98,West Fork Buttermilk,North Cascades,Methow/Sawtooth,15.0,roundtrip,3615.0,7480.0,3.25,4,48.31111497,-120.336771,10/3/21 0:00,25,0,1,0,0,0,1,0,1,0,0,0,1,1,0,0,Northwest Forest Pass,https://www.wta.org/go-hiking/hikes/west-fork-buttermilk-river
99,Wild Horses Monument,Central Washington,Yakima,0.4,roundtrip,150.0,1300.0,2.33,6,46.9645655,-119.9642694,9/19/21 0:00,27,0,1,0,0,0,0,1,0,0,0,0,0,0,0,0,,https://www.wta.org/go-hiking/hikes/wild-horses-monument
100,West Fork Dosewallips River,Olympic Peninsula,Hood Canal,15.8,roundtrip,2400.0,3600.0,4.33,6,47.7434265,-123.2032514,9/2/21 0:00,79,0,1,0,1,1,1,1,1,0,0,0,1,0,1,0,No pass,https://www.wta.org/go-hiking/hikes/west-fork-dosewallips-river
101,West Fork Pasayten River,North Cascades,Pasayten,33.0,roundtrip,2400.0,7200.0,3.75,4,48.7337925,-120.6751729,8/14/20 0:00,14,0,1,0,0,0,0,1,1,0,0,1,1,0,0,0,Northwest Forest Pass,https://www.wta.org/go-hiking/hikes/west-fork-pasayten-river
102,West Fork Methow River,North Cascades,Methow/Sawtooth,15.8,roundtrip,1600.0,4280.0,3.6,5,48.6515,-120.5623,10/5/21 0:00,33,0,1,0,0,0,0,1,0,0,1,0,0,1,0,0,No pass,https://www.wta.org/go-hiking/hikes/west-fork-methow-river
103,Frosty - Wildhorse Creek,Central Cascades,Stevens Pass - East,,,,,3.75,4,,,9/4/21 0:00,81,0,1,1,0,1,1,1,1,1,1,1,1,0,0,0,Northwest Forest Pass,https://www.wta.org/go-hiking/hikes/wildhorse-creek
104,Wilson Creek,Central Cascades,Entiat Mountains/Lake Chelan,2.1,one-way,,,2.75,4,,,9/19/19 0:00,2,0,1,0,0,0,1,0,0,0,0,1,0,1,0,0,No pass,https://www.wta.org/go-hiking/hikes/wilson-creek
105,Upper Lake Mills,Olympic Peninsula,Northern Coast,0.8,roundtrip,400.0,,2.6,5,47.97287538,-123.5883375,9/15/17 0:00,9,0,1,0,0,0,0,0,0,0,0,0,0,0,1,0,National Park Pass,https://www.wta.org/go-hiking/hikes/upper-lake-mills
106,Upper Mad River Trail,Central Cascades,Entiat Mountains/Lake Chelan,12.2,one-way,,,2.0,4,47.84101581,-120.6045333,10/3/20 0:00,19,0,1,1,0,0,0,0,1,0,0,1,0,1,0,0,,https://www.wta.org/go-hiking/hikes/upper-mad-river
107,Upper Roaring Creek,Central Cascades,Stevens Pass - East,3.0,roundtrip,,6050.0,2.5,4,47.751,-120.894,9/24/21 0:00,4,0,0,1,0,0,1,0,1,0,0,0,1,1,0,0,No pass,https://www.wta.org/go-hiking/hikes/upper-roaring-creek
108,Trout Creek,Central Cascades,Stevens Pass - West,3.0,roundtrip,500.0,1400.0,3.67,6,47.8757746,-121.4609644,7/18/21 0:00,33,0,1,0,1,0,1,0,0,0,1,0,0,0,0,1,Northwest Forest Pass,https://www.wta.org/go-hiking/hikes/trout-creek
109,Turnbull National Wildlife Refuge,Eastern Washington,Spokane Area/Coeur d'Alene,5.5,roundtrip,,2300.0,3.62,8,47.4168332,-117.5311128,9/15/20 0:00,20,0,0,1,0,0,1,1,0,0,1,0,0,1,0,1,Refuge Entrance Pass,https://www.wta.org/go-hiking/hikes/turnbull-national-wildlife-refuge
110,Tunnel Creek,Central Cascades,Stevens Pass - West,1.6,one-way,1300.0,4400.0,3.67,6,47.70942256,-121.1065382,9/14/21 0:00,87,0,0,1,1,0,0,1,0,0,0,0,0,1,0,0,No pass,https://www.wta.org/go-hiking/hikes/tunnel-creek
111,Twin Lakes (Wenatchee),Central Cascades,Stevens Pass - East,6.0,roundtrip,1000.0,2850.0,3.0,8,47.92053333,-120.8948833,9/21/21 0:00,134,0,1,1,0,1,0,0,1,0,0,0,1,1,0,0,Northwest Forest Pass,https://www.wta.org/go-hiking/hikes/twin-lakes-1
112,Trout Creek,North Cascades,Pasayten,5.4,roundtrip,800.0,5420.0,2.0,3,48.69828333,-120.6367833,7/4/19 0:00,1,0,0,0,0,0,0,1,1,0,0,0,0,0,0,0,,https://www.wta.org/go-hiking/hikes/trout-creek-1
113,Triad Creek,North Cascades,Mountain Loop Highway,4.0,one-way,2755.0,5807.0,2.5,4,48.13281372,-121.001721,7/19/18 0:00,2,0,1,0,0,1,0,1,0,0,0,0,0,0,0,0,Northwest Forest Pass,https://www.wta.org/go-hiking/hikes/triad-creek
114,Escure Ranch - Towell Falls,Central Washington,Potholes Region,6.4,roundtrip,530.0,1565.0,3.88,8,47.014267,-117.94355,5/2/21 0:00,45,0,0,0,1,0,0,1,0,0,1,0,0,1,0,1,No pass,https://www.wta.org/go-hiking/hikes/towell-falls
115,Trap Pass,Central Cascades,Stevens Pass - West,11.4,roundtrip,2700.0,5800.0,2.83,6,47.70931361,-121.1065596,9/13/21 0:00,51,0,0,1,1,0,0,1,1,0,0,1,0,0,0,0,No pass,https://www.wta.org/go-hiking/hikes/trap-pass
116,Tenmile Falls,Central Cascades,Entiat Mountains/Lake Chelan,5.4,roundtrip,1300.0,4600.0,2.5,4,48.199807,-120.7745483,6/12/19 0:00,8,0,0,0,1,0,0,1,1,0,1,0,0,1,0,1,No pass,https://www.wta.org/go-hiking/hikes/ten-mile
117,Tomyhoi Lake,North Cascades,Mount Baker Area,8.0,roundtrip,1800.0,5400.0,2.38,8,48.94353113,-121.6625118,8/17/20 0:00,24,0,0,1,0,0,0,1,1,0,1,1,0,0,0,0,Northwest Forest Pass,https://www.wta.org/go-hiking/hikes/tomyhoi-lake
118,Top Lake,Central Cascades,Leavenworth Area,10.4,roundtrip,1500.0,5200.0,2.5,6,47.88020372,-121.0791206,8/14/21 0:00,35,0,0,1,0,0,0,1,1,0,0,0,1,1,0,0,No pass,https://www.wta.org/go-hiking/hikes/top-lake
119,Tomyhoi Peak,North Cascades,Mount Baker Area,6.5,roundtrip,2000.0,,3.88,8,48.9435875,-121.661911,7/18/21 0:00,37,0,0,0,0,0,0,0,0,0,0,0,0,0,0,0,Northwest Forest Pass,https://www.wta.org/go-hiking/hikes/tomyhoi-peak
120,Silver Forest - Emmons Vista,Mount Rainier Area,NE - Sunrise/White River,2.5,roundtrip,325.0,6400.0,3.86,7,46.91407334,-121.6418423,9/5/21 0:00,35,0,0,0,0,0,0,1,1,0,0,0,0,0,1,1,National Park Pass,https://www.wta.org/go-hiking/hikes/silver-forest-emmons-vista
121,Deception Falls National Recreation Area,Central Cascades,Stevens Pass - West,0.5,roundtrip,50.0,,3.76,17,47.7146,-121.1934333,10/31/21 0:00,102,0,0,0,1,1,0,0,0,0,0,0,0,0,0,1,No pass,https://www.wta.org/go-hiking/hikes/deception-falls-nra
122,Baker Lake - Maple Grove,North Cascades,Mount Baker Area,8.0,roundtrip,500.0,1000.0,3.86,14,48.64561313,-121.674614,10/30/21 0:00,331,0,0,1,0,0,0,0,0,0,0,0,1,1,0,1,Northwest Forest Pass,https://www.wta.org/go-hiking/hikes/baker-lake-maple-grove
123,Alpine Lookout,Central Cascades,Stevens Pass - East,10.0,roundtrip,2600.0,6235.0,3.6,10,47.79226667,-120.79445,9/26/21 0:00,114,0,0,0,0,0,0,1,1,0,1,1,0,1,0,0,Northwest Forest Pass,https://www.wta.org/go-hiking/hikes/alpine-lakes-high-route
124,High Divide - Seven Lakes Basin Loop,Olympic Peninsula,Northern Coast,19.0,roundtrip,4000.0,5120.0,4.53,30,47.9506422,-123.815197,10/13/21 0:00,310,0,1,1,0,0,0,0,1,0,1,0,1,0,1,0,National Park Pass,https://www.wta.org/go-hiking/hikes/seven-lakes-basin
125,Bridal Veil Falls,Central Cascades,Stevens Pass - West,4.0,roundtrip,1000.0,1600.0,3.99,68,47.80919243,-121.5739748,10/22/21 0:00,596,0,0,0,1,0,0,0,1,0,0,0,0,1,0,1,Northwest Forest Pass,https://www.wta.org/go-hiking/hikes/bridal-veil-falls
126,Eightmile Lake,Central Cascades,Leavenworth Area,6.6,roundtrip,1300.0,4650.0,3.68,28,47.53596667,-120.8139,10/26/21 0:00,370,0,1,1,0,1,0,1,1,0,0,0,0,0,1,0,Northwest Forest Pass,https://www.wta.org/go-hiking/hikes/eightmile-lake
127,Wilderness Peak Loop,Issaquah Alps,Cougar Mountain,4.0,roundtrip,1200.0,1598.0,3.09,32,47.50931654,-122.0903778,11/8/21 0:00,298,0,0,0,1,1,1,1,0,1,1,1,0,1,0,1,No pass,https://www.wta.org/go-hiking/hikes/wilderness-peak
128,Lundin Peak,Snoqualmie Region,Snoqualmie Pass,7.6,roundtrip,2900.0,6057.0,4.0,3,47.428029,-121.413413,10/16/21 0:00,53,0,0,0,0,0,0,1,1,1,0,1,0,0,0,0,Northwest Forest Pass,https://www.wta.org/go-hiking/hikes/lundin-peak-trail
129,Columbia Mountain,Eastern Washington,Okanogan Highlands/Kettle River Range,5.4,roundtrip,3348.0,6565.0,5.0,1,48.65928538,-118.8587826,10/18/21 0:00,22,0,0,0,0,0,0,1,1,1,0,0,0,1,0,0,No pass,https://www.wta.org/go-hiking/hikes/columbia-mountain
130,North Creek Park Boardwalk,Puget Sound and Islands,Seattle-Tacoma Area,2.0,roundtrip,,,3.2,10,47.83275993,-122.2190379,8/28/21 0:00,115,0,0,0,0,0,0,0,0,0,1,0,0,1,0,1,No pass,https://www.wta.org/go-hiking/hikes/north-creek-park-boardwalk
131,Lena Lake,Olympic Peninsula,Hood Canal,7.2,roundtrip,1300.0,2000.0,4.11,88,47.59973333,-123.1511833,11/7/21 0:00,969,0,0,1,1,1,0,1,1,0,0,0,1,1,0,1,Northwest Forest Pass,https://www.wta.org/go-hiking/hikes/lena-lake
132,Nooksack Cirque,North Cascades,Mount Baker Area,9.0,roundtrip,640.0,2840.0,3.25,8,48.88988333,-121.6749167,8/12/21 0:00,65,0,0,0,0,1,0,0,1,0,0,0,0,1,0,0,No pass,https://www.wta.org/go-hiking/hikes/nooksack-cirque
133,Deer Park to Maiden Peak,Olympic Peninsula,Northern Coast,7.2,roundtrip,2100.0,6200.0,4.67,6,47.94967675,-123.264753,9/25/21 0:00,80,0,0,0,0,0,1,1,1,1,1,1,1,0,0,0,National Park Pass,https://www.wta.org/go-hiking/hikes/deer-park-to-maiden-peak
134,Cape Alava,Olympic Peninsula,Pacific Coast,6.2,roundtrip,100.0,350.0,3.55,11,48.15369715,-124.6687281,10/23/21 0:00,86,1,1,0,0,0,0,0,0,0,1,0,1,0,1,1,National Park Pass,https://www.wta.org/go-hiking/hikes/cape-alava
135,Circle Peak,North Cascades,Mountain Loop Highway,16.0,roundtrip,2800.0,5983.0,1.8,5,48.22338605,-121.3500881,8/29/21 0:00,34,0,0,0,0,0,0,1,1,1,0,1,0,0,0,0,Northwest Forest Pass,https://www.wta.org/go-hiking/hikes/circle-peak
136,Rampart Ridge - Rampart Lakes,Snoqualmie Region,Snoqualmie Pass,11.0,roundtrip,2200.0,5100.0,4.12,26,47.3979629,-121.2843441,10/30/21 0:00,409,0,1,1,1,0,0,0,1,0,0,1,1,0,0,0,Northwest Forest Pass,https://www.wta.org/go-hiking/hikes/rampart-ridge-1
137,Owyhigh Lakes,Mount Rainier Area,NE - Sunrise/White River,7.0,roundtrip,1650.0,5275.0,3.65,17,46.890517,-121.596783,10/16/21 0:00,231,0,0,1,0,1,0,1,1,0,1,0,1,0,1,1,National Park Pass,https://www.wta.org/go-hiking/hikes/owyhigh-lakes
138,Mount Zion,Olympic Peninsula,Hood Canal,4.6,roundtrip,1300.0,4274.0,3.52,21,47.9228,-123.0260667,10/13/21 0:00,231,0,0,0,0,0,0,0,0,0,0,0,0,0,0,0,Northwest Forest Pass,https://www.wta.org/go-hiking/hikes/mount-zion
139,"Stagman Ridge, Horseshoe Meadow, Lookingglass Lake",South Cascades,Mount Adams Area,14.0,roundtrip,2400.0,6100.0,3.83,6,46.14005808,-121.5973878,9/16/21 0:00,18,0,0,0,0,1,0,1,1,0,1,1,1,1,0,0,No pass,https://www.wta.org/go-hiking/hikes/horseshoe-meadow
140,Palouse to Cascades Trail - The Tunnel,Snoqualmie Region,Snoqualmie Pass,5.3,roundtrip,,1100.0,3.71,17,47.39301667,-121.3928,10/20/21 0:00,164,0,0,0,0,0,0,0,0,0,0,0,0,1,0,1,Discover Pass,https://www.wta.org/go-hiking/hikes/iron-horse-tunnel
141,Humpback Mountain,Snoqualmie Region,Snoqualmie Pass,4.0,roundtrip,2600.0,5112.0,3.79,14,47.37841085,-121.5161877,11/6/21 0:00,162,0,0,0,0,0,0,0,1,1,0,1,0,1,0,0,,https://www.wta.org/go-hiking/hikes/humpback-mountain
142,Cable Line Trail,Issaquah Alps,Tiger Mountain,3.0,roundtrip,2022.0,2522.0,3.74,23,47.52960425,-121.9843769,11/2/21 0:00,378,0,0,0,0,0,0,0,0,0,0,0,0,1,0,0,Discover Pass,https://www.wta.org/go-hiking/hikes/cable-line-trail
143,Thorp Mountain Lookout via Thorp Creek,Snoqualmie Region,Salmon La Sac/Teanaway,7.4,roundtrip,2484.0,5884.0,4.1,10,47.37325953,-121.1582186,10/31/21 0:00,118,0,0,1,0,0,1,1,1,1,0,0,0,1,0,0,No pass,https://www.wta.org/go-hiking/hikes/thorp-mountain-lookout-via-thorp-creek
144,Snoqualmie Mountain,Snoqualmie Region,,3.8,roundtrip,3105.0,6278.0,4.47,15,47.4452794,-121.4234437,10/29/21 0:00,261,0,0,0,0,0,0,0,1,1,0,0,0,0,0,0,Northwest Forest Pass,https://www.wta.org/go-hiking/hikes/mount-snoqualmie
145,Shelton View Forest,Puget Sound and Islands,Seattle-Tacoma Area,5.0,trails,,,3.67,3,47.78398067,-122.2417617,10/12/21 0:00,15,0,0,0,0,1,1,0,0,0,1,1,0,1,0,1,No pass,https://www.wta.org/go-hiking/hikes/shelton-view-forest
146,Union Bay Natural Area,Puget Sound and Islands,Seattle-Tacoma Area,1.5,roundtrip,,,2.75,4,47.6579868,-122.290565,3/13/21 0:00,28,0,0,1,0,0,0,0,1,0,1,0,0,1,0,1,,https://www.wta.org/go-hiking/hikes/union-bay-nature-area
147,Skyscraper Pass,Mount Rainier Area,NE - Sunrise/White River,6.8,roundtrip,1700.0,7079.0,4.0,5,46.9146,-121.6423,9/11/21 0:00,102,0,0,0,0,0,0,0,1,0,0,1,0,0,1,0,National Park Pass,https://www.wta.org/go-hiking/hikes/skyscraper-pass
148,Wildwood Park,Puget Sound and Islands,Seattle-Tacoma Area,3.0,trails,75.0,354.0,4.0,2,47.16970211,-122.2813511,8/9/21 0:00,3,0,0,0,1,0,1,0,0,0,0,0,0,1,0,1,No pass,https://www.wta.org/go-hiking/hikes/wildwood-park
149,Nathan Chapman Memorial Trail,Puget Sound and Islands,Seattle-Tacoma Area,0.6,one-way,,,5.0,1,47.128385,-122.314623,8/10/21 0:00,2,0,0,0,0,0,0,0,0,0,0,0,0,1,0,1,No pass,https://www.wta.org/go-hiking/hikes/nathan-chapman-memorial-trail
150,Kukutali Preserve,Puget Sound and Islands,Bellingham Area,2.2,roundtrip,200.0,230.0,4.25,12,48.42097114,-122.5529449,10/19/21 0:00,93,1,0,0,0,1,1,0,0,0,1,0,0,0,1,1,Discover Pass,https://www.wta.org/go-hiking/hikes/kukutali-preserve
151,Mount Aix,Mount Rainier Area,Chinook Pass - Hwy 410,12.0,roundtrip,4650.0,7766.0,4.45,11,46.8139,-121.3055,8/8/21 0:00,135,0,0,0,0,0,0,0,1,1,0,1,0,1,0,0,Northwest Forest Pass,https://www.wta.org/go-hiking/hikes/mount-aix
152,Little Bald Mountain,Mount Rainier Area,Chinook Pass - Hwy 410,12.6,roundtrip,2185.0,4602.0,2.67,3,46.98152656,-121.1205597,6/26/20 0:00,8,0,0,0,0,0,0,1,1,1,0,1,0,1,0,0,No pass,https://www.wta.org/go-hiking/hikes/little-bald-mountain
153,Rattlesnake Trail,Mount Rainier Area,Chinook Pass - Hwy 410,6.0,roundtrip,300.0,3000.0,0.0,0,46.79555923,-121.1009135,7/19/19 0:00,3,0,1,0,0,0,0,0,0,0,1,0,0,1,0,0,No pass,https://www.wta.org/go-hiking/hikes/rattlesnake-trail-1114
154,Burnt Mountain,South Cascades,White Pass/Cowlitz River Valley,5.0,roundtrip,500.0,6586.0,4.0,12,46.71515,-121.1660167,7/4/21 0:00,59,0,0,0,0,0,0,1,1,1,1,1,0,1,0,0,Northwest Forest Pass,https://www.wta.org/go-hiking/hikes/burnt-mountain
155,American Ridge,Mount Rainier Area,Chinook Pass - Hwy 410,12.0,one-way,2950.0,6310.0,3.6,5,46.9695,-121.168,8/8/21 0:00,76,0,1,1,0,0,0,0,1,0,0,1,1,1,0,0,Northwest Forest Pass,https://www.wta.org/go-hiking/hikes/american-ridge
156,Bonaparte Trail,Eastern Washington,Okanogan Highlands/Kettle River Range,11.0,roundtrip,2700.0,7250.0,0.0,0,48.812851,-119.123565,6/13/21 0:00,18,0,0,1,0,0,0,0,0,1,0,0,0,1,0,0,Northwest Forest Pass,https://www.wta.org/go-hiking/hikes/bonaparte-lake-trail
157,Cabin Trail,Eastern Washington,Okanogan Highlands/Kettle River Range,5.0,roundtrip,,,4.25,4,48.770925,-119.183758,5/27/20 0:00,1,0,0,0,0,0,1,0,0,0,0,0,0,1,0,0,,https://www.wta.org/go-hiking/hikes/cabin-trail
158,Mount Bonaparte Circumnavigation,Eastern Washington,Okanogan Highlands/Kettle River Range,16.0,roundtrip,3000.0,7250.0,0.0,0,,,10/3/20 0:00,1,0,0,0,0,0,0,0,1,1,0,0,1,1,0,0,Northwest Forest Pass,https://www.wta.org/go-hiking/hikes/mount-bonaparte-circumnavigation
159,Grand Forest,Puget Sound and Islands,Seattle-Tacoma Area,7.0,trails,,350.0,3.5,2,47.650406,-122.5478536,8/13/21 0:00,12,0,0,0,0,0,0,1,0,0,1,0,0,1,0,1,No pass,https://www.wta.org/go-hiking/hikes/grand-forest
160,Little Quilcene River,Olympic Peninsula,Hood Canal,6.8,roundtrip,2180.0,6200.0,3.94,16,47.88663792,-123.0418818,10/31/21 0:00,140,0,0,0,0,0,0,1,1,1,1,1,0,0,0,0,No pass,https://www.wta.org/go-hiking/hikes/little-quilcene-river
161,Lake Angeles,Olympic Peninsula,Northern Coast,7.4,roundtrip,2350.0,4196.0,3.56,18,48.03908333,-123.4319333,8/29/21 0:00,178,0,0,1,0,0,0,0,0,0,0,0,1,0,1,0,National Park Pass,https://www.wta.org/go-hiking/hikes/lake-angeles
162,Lily and Lizard Lake Loop,Puget Sound and Islands,Bellingham Area,7.15,roundtrip,1400.0,2120.0,3.9,10,48.61699503,-122.3857856,11/7/21 0:00,223,0,0,1,1,1,0,1,1,0,1,1,1,1,0,1,Discover Pass,https://www.wta.org/go-hiking/hikes/lily-lizard-lake-loop
163,Big Gulch,Puget Sound and Islands,Seattle-Tacoma Area,2.6,roundtrip,300.0,460.0,3.27,11,47.9150497,-122.2975571,10/17/21 0:00,56,0,0,0,0,0,1,1,0,0,1,0,0,1,0,1,No pass,https://www.wta.org/go-hiking/hikes/big-gulch-mukilteo
164,Spray Park,Mount Rainier Area,NW - Carbon River/Mowich,8.0,roundtrip,1700.0,6500.0,4.29,56,46.9327,-121.8636167,10/9/21 0:00,589,0,0,0,1,1,0,1,1,0,1,0,0,0,1,0,National Park Pass,https://www.wta.org/go-hiking/hikes/spray-park
165,Langus Riverfront Park,Puget Sound and Islands,Seattle-Tacoma Area,3.0,roundtrip,,,2.75,4,48.0001929,-122.1755585,10/18/21 0:00,29,0,1,0,0,0,0,0,0,0,1,0,0,1,0,1,,https://www.wta.org/go-hiking/hikes/langus-riverfront-park
166,Mount Adams South Climb,South Cascades,Mount Adams Area,12.0,roundtrip,6700.0,12276.0,4.74,19,46.13586399,-121.4976034,8/26/21 0:00,358,0,1,0,0,0,0,0,1,1,0,0,1,1,0,0,Northwest Forest Pass,https://www.wta.org/go-hiking/hikes/mount-adams-south-climb
167,Little Mashel Falls -  Bud Blancher Trail,Mount Rainier Area,NW - Carbon River/Mowich,4.5,roundtrip,500.0,1100.0,4.75,8,46.864669,-122.25757,10/24/21 0:00,159,0,1,0,1,1,0,0,0,0,1,0,0,0,0,0,No pass,https://www.wta.org/go-hiking/hikes/little-mashel-falls-bud-blancher-trail
168,Teneriffe Falls,Snoqualmie Region,North Bend Area,5.6,roundtrip,1585.0,2370.0,3.91,75,47.486866,-121.709682,11/6/21 0:00,1181,0,0,0,1,0,0,1,1,0,0,0,0,1,0,0,Discover Pass,https://www.wta.org/go-hiking/hikes/teneriffe-falls
169,Grand Valley - Cameron Creek Loop,Olympic Peninsula,Northern Coast,30.8,roundtrip,10945.0,6628.0,0.0,0,47.9485227,-123.2591073,,0,0,1,1,0,0,0,0,1,0,0,1,1,0,1,0,National Park Pass,https://www.wta.org/go-hiking/grand-valley-cameron-creek-loop
170,Mother Mountain Loop,Mount Rainier Area,NW - Carbon River/Mowich,15.3,roundtrip,6277.0,6380.0,0.0,0,46.9327668,-121.8631679,8/8/21 0:00,6,0,1,1,1,0,0,1,1,0,0,1,1,0,1,0,National Park Pass,https://www.wta.org/go-hiking/hikes/mother-mountain-loop
171,Cameron Pass,Olympic Peninsula,Hood Canal,3.3,one-way,2401.0,6418.0,3.33,6,47.9485227,-123.2591073,8/23/21 0:00,36,0,1,0,0,0,0,1,0,0,0,1,0,0,1,0,National Park Pass,https://www.wta.org/go-hiking/hikes/cameron-pass
172,Cameron Creek,Olympic Peninsula,Hood Canal,6.71,one-way,3304.0,4210.0,2.75,4,47.91551871,-123.2481802,8/23/21 0:00,34,0,1,0,0,0,0,0,0,0,0,0,1,0,1,0,National Park Pass,https://www.wta.org/go-hiking/hikes/cameron-creek
173,Catherine Creek Loop,Southwest Washington,Columbia River Gorge - WA,5.0,roundtrip,,,0.0,0,45.2044524,-117.8473561,4/3/21 0:00,1,0,1,0,0,0,0,0,0,0,0,0,0,1,0,1,No pass,https://www.wta.org/go-hiking/hikes/catherine-creek-loop
174,Eastside Trail,Mount Rainier Area,SE - Cayuse Pass/Stevens Canyon,26.2,one-way,3532.0,,3.0,3,46.75115301,-121.574707,10/7/21 0:00,104,0,0,1,0,0,0,1,0,0,1,0,1,0,1,0,National Park Pass,https://www.wta.org/go-hiking/hikes/eastside-trail
175,Three Forks,Olympic Peninsula,Northern Coast,8.5,roundtrip,3366.0,5381.0,3.2,5,47.94902749,-123.2583618,8/23/21 0:00,54,0,1,0,0,0,0,0,1,0,0,0,1,0,1,0,National Park Pass,https://www.wta.org/go-hiking/hikes/three-forks-1
176,Grand Valley Loop,Olympic Peninsula,Northern Coast,7.9,roundtrip,2080.0,6450.0,4.25,20,47.91829785,-123.3822155,9/14/21 0:00,95,0,0,0,0,1,0,1,0,0,1,0,1,0,1,0,National Park Pass,https://www.wta.org/go-hiking/hikes/grand-valley
177,Round Pass Trail,Mount Rainier Area,SW - Longmire/Paradise,0.5,one-way,362.0,3885.0,0.0,0,46.79500627,-121.8947268,10/25/20 0:00,2,0,0,0,0,0,0,0,1,0,0,0,0,0,1,0,National Park Pass,https://www.wta.org/go-hiking/hikes/round-pass-trail
178,Frying Pan Loop,South Cascades,White Pass/Cowlitz River Valley,14.9,roundtrip,3815.0,3261.0,2.33,3,46.70421813,-121.4806339,8/18/19 0:00,8,0,0,1,0,0,1,0,1,1,0,0,1,1,0,0,,https://www.wta.org/go-hiking/hikes/frying-pan
179,Crystal Lakes,Mount Rainier Area,NE - Sunrise/White River,6.0,roundtrip,2600.0,5828.0,4.3,44,46.92273333,-121.5336167,10/31/21 0:00,437,0,0,1,0,1,0,1,1,0,1,0,1,0,1,0,No pass,https://www.wta.org/go-hiking/hikes/crystal-lakes
180,Iron Goat Trail - Winter Route,Central Cascades,Stevens Pass - West,,,,,0.0,0,47.7120293,-121.1622797,7/19/20 0:00,11,0,0,0,0,0,0,0,0,0,0,0,0,0,0,0,,https://www.wta.org/go-hiking/hikes/iron-goat-trail-snowshoe
181,Jumbo Peak,South Cascades,Dark Divide,6.0,roundtrip,1300.0,5801.0,2.75,4,46.33538333,-121.7433833,8/24/20 0:00,10,0,0,0,0,0,0,1,1,1,0,0,0,0,0,0,Northwest Forest Pass,https://www.wta.org/go-hiking/hikes/jumbo-peak
182,Jolly Mountain,Snoqualmie Region,Salmon La Sac/Teanaway,13.9,roundtrip,4000.0,6440.0,2.62,8,47.4044,-121.099117,11/5/21 0:00,69,0,0,0,0,0,0,1,1,1,0,1,0,0,0,0,Northwest Forest Pass,https://www.wta.org/go-hiking/hikes/jolly-mountain
183,Japanese Gulch,Puget Sound and Islands,Seattle-Tacoma Area,4.0,trails,174.0,363.0,3.2,10,47.94676382,-122.2920799,9/30/21 0:00,97,0,1,0,1,1,0,0,1,0,0,0,0,1,0,1,No pass,https://www.wta.org/go-hiking/hikes/japanese-gulch
184,Jumpoff Ridge,Central Cascades,Stevens Pass - West,8.0,roundtrip,1800.0,2600.0,1.0,1,47.8537658,-121.5022057,8/1/20 0:00,23,0,0,0,0,0,1,0,1,0,0,1,0,0,0,0,No pass,https://www.wta.org/go-hiking/hikes/jumpoff-ridge
185,Johnson Creek - Medra Pass,Snoqualmie Region,Salmon La Sac/Teanaway,8.0,roundtrip,2250.0,5420.0,3.7,10,47.3812,-120.885733,10/6/21 0:00,104,0,1,0,0,0,0,1,1,0,0,1,0,1,0,0,Northwest Forest Pass,https://www.wta.org/go-hiking/hikes/johnson-medra-creek
186,June Lake Snowshoe,South Cascades,Mount St. Helens,4.8,roundtrip,500.0,3140.0,3.75,4,46.1352375,-122.1568904,3/20/21 0:00,39,0,1,1,1,1,0,0,1,0,0,0,0,0,0,1,Sno-Parks Permit,https://www.wta.org/go-hiking/hikes/june-lake-snowshoe
187,Judi's Peak,Snoqualmie Region,Salmon La Sac/Teanaway,,,3417.0,6560.0,0.0,0,,,5/18/21 0:00,8,0,0,0,0,0,0,0,0,0,0,0,0,0,0,0,Northwest Forest Pass,https://www.wta.org/go-hiking/hikes/judis-peak
188,Jug Lake,South Cascades,White Pass/Cowlitz River Valley,7.4,roundtrip,1485.0,4480.0,2.89,9,46.72303333,-121.4366,9/1/21 0:00,23,0,0,1,0,0,0,0,0,0,0,0,1,1,0,0,,https://www.wta.org/go-hiking/hikes/jug-lake
189,Ice Cave - Natural Bridges Nature Trails,South Cascades,Mount Adams Area,0.25,roundtrip,,2900.0,2.2,5,46.1298056,-121.8392125,5/17/21 0:00,8,0,0,0,0,0,0,0,0,0,0,0,0,0,0,1,,https://www.wta.org/go-hiking/hikes/ice-cave-natural-bridges-nature-trails
190,Junction Lake,South Cascades,Mount Adams Area,5.0,roundtrip,700.0,4780.0,2.5,2,45.98114209,-121.7581594,7/8/21 0:00,5,0,0,1,0,1,0,1,0,0,0,0,1,0,0,0,,https://www.wta.org/go-hiking/hikes/indian-heaven-junction-lake
191,Indian Racetrack,South Cascades,Mount Adams Area,5.0,roundtrip,700.0,5200.0,3.33,6,46.1298056,-121.8392125,3/6/21 0:00,18,0,0,1,0,0,0,1,1,0,0,0,0,0,0,1,,https://www.wta.org/go-hiking/hikes/indian-racetrack
192,Howson Creek,Snoqualmie Region,Salmon La Sac/Teanaway,7.0,roundtrip,3400.0,5700.0,2.6,5,47.3514085,-121.1043602,7/2/21 0:00,24,0,0,0,0,0,0,1,1,1,0,1,0,0,0,0,No pass,https://www.wta.org/go-hiking/hikes/howson-creek
193,Iron Creek Campground Loop,South Cascades,White Pass/Cowlitz River Valley,1.5,roundtrip,,1200.0,3.0,5,46.429127,-121.9877633,6/18/21 0:00,13,0,1,0,0,1,1,1,0,0,0,0,1,0,0,1,Northwest Forest Pass,https://www.wta.org/go-hiking/hikes/iron-creek-campground
194,Illahee Forest Preserve,Olympic Peninsula,Kitsap Peninsula,2.7,roundtrip,210.0,530.0,3.0,2,47.597645,-122.59798,3/9/21 0:00,14,0,0,0,0,0,1,0,0,0,1,0,0,1,0,1,No pass,https://www.wta.org/go-hiking/hikes/illahee-preserve
195,Iceberg Point,Puget Sound and Islands,San Juan Islands,3.0,roundtrip,50.0,,4.0,6,48.42470111,-122.8774109,8/29/21 0:00,38,1,0,0,0,0,0,1,1,0,0,0,0,1,0,1,,https://www.wta.org/go-hiking/hikes/iceberg-point
196,Howard Creek,Central Cascades,Blewett Pass,6.0,roundtrip,,5600.0,2.0,4,47.31586013,-120.4998064,9/6/21 0:00,11,0,0,0,0,0,1,1,1,0,0,0,0,0,0,0,Northwest Forest Pass,https://www.wta.org/go-hiking/hikes/howard-creek
197,Lake Roosevelt National Recreation Area - Hawk Creek,Eastern Washington,Spokane Area/Coeur d'Alene,4.5,roundtrip,900.0,,0.0,0,47.810894,-118.310364,5/11/20 0:00,9,0,1,0,1,0,0,0,0,0,1,0,1,0,0,0,No pass,https://www.wta.org/go-hiking/hikes/hawk-creek-lake-roosevelt-nra
198,Hawkins Mountain,Snoqualmie Region,Salmon La Sac/Teanaway,10.0,roundtrip,3360.0,7160.0,3.5,2,47.45383312,-121.0416985,10/16/21 0:00,45,0,0,1,0,0,0,1,1,1,0,0,0,0,0,0,Northwest Forest Pass,https://www.wta.org/go-hiking/hikes/hawkins-mountain
199,Holden to Hart Lake,Central Cascades,Entiat Mountains/Lake Chelan,9.0,roundtrip,1000.0,3982.0,3.0,3,48.199517,-120.779208,9/15/21 0:00,16,0,0,1,1,0,1,0,1,0,0,0,1,1,0,0,,https://www.wta.org/go-hiking/hikes/holden-to-heart-lake
200,High Lakes Ramble,South Cascades,Mount Adams Area,6.4,roundtrip,1350.0,4370.0,3.0,6,46.29296667,-121.5959833,8/31/20 0:00,6,0,1,1,0,0,0,1,1,0,1,0,0,1,0,0,Northwest Forest Pass,https://www.wta.org/go-hiking/hikes/high-lakes
201,Hibox Mountain,Snoqualmie Region,Snoqualmie Pass,10.0,roundtrip,3900.0,6560.0,3.4,5,47.40076024,-121.2840414,9/26/21 0:00,82,0,0,0,0,0,0,1,1,1,0,0,0,0,0,0,Northwest Forest Pass,https://www.wta.org/go-hiking/hikes/hibox-mountain
202,Heart O' the Forest,Olympic Peninsula,Northern Coast,4.8,roundtrip,500.0,1900.0,3.0,2,48.03504439,-123.4245149,7/23/21 0:00,18,0,1,0,0,1,0,1,0,0,0,0,1,0,1,1,National Park Pass,https://www.wta.org/go-hiking/hikes/heart-o-the-forest
203,Henskin Lake,Mount Rainier Area,Chinook Pass - Hwy 410,6.0,roundtrip,1000.0,5550.0,3.0,5,46.93690918,-121.4692318,9/25/21 0:00,41,0,0,1,0,0,0,1,0,0,0,0,0,1,0,0,,https://www.wta.org/go-hiking/hikes/henskin-lake
204,Hemlock Peak,Snoqualmie Region,Snoqualmie Pass,,,3440.0,5560.0,4.0,1,,,10/15/20 0:00,6,0,0,0,0,0,0,0,0,0,0,0,0,0,0,0,Northwest Forest Pass,https://www.wta.org/go-hiking/hikes/hemlock-peak
205,Gray Peak,North Cascades,Methow/Sawtooth,,,5056.0,8074.0,5.0,1,48.267363,-120.4642605,6/14/21 0:00,7,0,0,1,0,0,0,0,1,1,0,1,0,0,0,0,Northwest Forest Pass,https://www.wta.org/go-hiking/hikes/gray-peak
206,Gold Basin Mill Pond Interpretive Trail,North Cascades,Mountain Loop Highway,0.25,roundtrip,,,3.0,1,48.087712,-121.7695427,9/5/20 0:00,11,0,0,1,0,0,0,0,0,0,1,0,0,1,0,1,No pass,https://www.wta.org/go-hiking/hikes/gold-basin-mill-pond-interpretive-trail
207,Haney Meadow Loop Snowshoe,Central Cascades,Blewett Pass,7.7,roundtrip,2060.0,5960.0,4.5,2,47.3348885,-120.580815,11/29/20 0:00,7,0,0,0,0,0,0,0,1,0,0,1,0,0,0,0,Sno-Parks Permit,https://www.wta.org/go-hiking/hikes/haney-meadow-loop-snowshoe
208,Greenbank Farm,Puget Sound and Islands,Whidbey Island,7.0,trails,275.0,300.0,3.2,5,48.11132827,-122.5756216,10/31/21 0:00,10,0,0,0,0,0,0,0,1,0,1,0,0,1,0,1,No pass,https://www.wta.org/go-hiking/hikes/greenbank-farm
209,Granite Mountain - Winter,Snoqualmie Region,Snoqualmie Pass,,,3750.0,5629.0,4.0,4,47.3979139,-121.4877653,5/31/21 0:00,109,0,0,0,0,0,0,0,1,1,0,0,0,0,0,0,,https://www.wta.org/go-hiking/hikes/granite-mountain-snowshoe
210,East Tiger,Issaquah Alps,Tiger Mountain,10.6,roundtrip,2940.0,3004.0,2.57,7,47.50755266,-121.9582254,4/21/21 0:00,82,0,0,0,0,0,0,0,0,0,0,0,0,0,0,0,Discover Pass,https://www.wta.org/go-hiking/hikes/east-tiger
211,Silent Swamp Loop,Issaquah Alps,Tiger Mountain,8.8,roundtrip,600.0,1780.0,2.89,9,47.46831145,-121.9362044,7/17/21 0:00,37,0,0,0,0,0,1,1,1,0,1,0,0,0,0,1,Discover Pass,https://www.wta.org/go-hiking/hikes/silent-swamp
212,Inside Passage,Issaquah Alps,Tiger Mountain,6.2,roundtrip,1600.0,2150.0,1.0,1,47.46837457,-121.9363104,4/24/21 0:00,11,0,1,0,0,0,1,0,0,0,1,0,0,1,0,0,Discover Pass,https://www.wta.org/go-hiking/hikes/inside-passage
213,Freund Canyon,Central Cascades,Leavenworth Area,7.3,roundtrip,1800.0,3000.0,1.0,1,47.62858248,-120.6558037,8/10/21 0:00,8,0,0,0,0,0,0,0,1,0,0,0,0,0,0,0,No pass,https://www.wta.org/go-hiking/hikes/freund-canyon
214,Esmeralda Peak Loop,Snoqualmie Region,Salmon La Sac/Teanaway,12.1,roundtrip,2940.0,6000.0,4.67,3,47.44318219,-120.9399033,10/2/21 0:00,17,0,1,0,0,0,0,1,1,0,0,1,0,1,0,0,Northwest Forest Pass,https://www.wta.org/go-hiking/hikes/esmeralda-peak-loop
215,Easy Pass,North Cascades,North Cascades Highway - Hwy 20,7.0,roundtrip,2800.0,6500.0,4.0,20,48.58791667,-120.8028667,10/19/21 0:00,200,0,0,0,0,0,1,1,1,0,0,1,0,0,0,0,Northwest Forest Pass,https://www.wta.org/go-hiking/hikes/easy-pass
216,Burroughs Mountain,Mount Rainier Area,NE - Sunrise/White River,9.0,roundtrip,2500.0,7828.0,4.48,73,46.91461667,-121.6423333,10/9/21 0:00,767,0,0,0,0,0,1,1,1,1,1,1,0,0,1,1,National Park Pass,https://www.wta.org/go-hiking/hikes/burroughs-mountain
217,Cooney Lake,North Cascades,Methow/Sawtooth,17.6,roundtrip,2850.0,7260.0,3.17,6,48.22177223,-120.2668674,10/9/21 0:00,70,0,0,1,0,0,1,1,1,0,0,0,0,1,0,0,Northwest Forest Pass,https://www.wta.org/go-hiking/hikes/cooney-lake
218,Icicle Creek,Central Cascades,Leavenworth Area,4.0,roundtrip,,,3.44,9,47.61239153,-120.9500168,9/4/21 0:00,144,0,1,0,0,1,0,0,0,0,0,0,1,0,0,1,Northwest Forest Pass,https://www.wta.org/go-hiking/hikes/icicle-creek
219,Crescent Beach Preserve,Puget Sound and Islands,San Juan Islands,1.5,roundtrip,40.0,60.0,3.0,2,48.69595,-122.891567,9/14/21 0:00,4,1,0,0,0,0,1,0,0,0,1,0,0,0,0,1,No pass,https://www.wta.org/go-hiking/hikes/crescent-beach-preserve
220,Boulder Creek,Central Cascades,Leavenworth Area,17.25,roundtrip,4850.0,6310.0,3.0,5,48.00115,-120.9634,8/12/20 0:00,7,0,1,0,0,1,0,1,1,0,1,1,0,1,0,0,Northwest Forest Pass,https://www.wta.org/go-hiking/hikes/boulder-creek
221,Duncan Hill,Central Cascades,Entiat Mountains/Lake Chelan,13.6,roundtrip,3000.0,7819.0,3.29,7,48.01723584,-120.5894136,10/14/21 0:00,17,0,0,0,0,0,0,1,1,1,1,1,0,0,0,0,Northwest Forest Pass,https://www.wta.org/go-hiking/hikes/duncan-hill
222,North Fork Entiat River,Central Cascades,Entiat Mountains/Lake Chelan,26.0,roundtrip,4000.0,7150.0,2.5,4,48.01121432,-120.5717969,8/23/21 0:00,37,0,1,1,0,0,1,1,1,0,1,0,1,1,0,0,Northwest Forest Pass,https://www.wta.org/go-hiking/hikes/north-fork-entiat-river
223,Tungsten,North Cascades,Pasayten,6.2,one-way,2100.0,6800.0,3.0,5,48.82364948,-120.0188541,8/9/20 0:00,22,0,0,0,0,0,0,1,1,0,0,1,0,0,0,0,Northwest Forest Pass,https://www.wta.org/go-hiking/hikes/tungsten
224,Fern Lake,Central Cascades,Entiat Mountains/Lake Chelan,16.0,roundtrip,3600.0,6950.0,4.0,6,48.01119997,-120.5718881,8/23/21 0:00,13,0,1,1,0,0,0,1,1,0,1,0,0,0,0,0,Northwest Forest Pass,https://www.wta.org/go-hiking/hikes/fern-lake
225,Miners Ridge (Entiat),Central Cascades,Entiat Mountains/Lake Chelan,4.0,roundtrip,850.0,5750.0,3.8,5,47.80016667,-120.57235,8/26/17 0:00,4,0,0,0,0,0,0,0,1,0,0,1,0,1,0,0,Northwest Forest Pass,https://www.wta.org/go-hiking/hikes/miners-ridge
226,Beacon Rock State Park - Hadley Trail,Southwest Washington,Columbia River Gorge - WA,1.2,roundtrip,175.0,750.0,0.0,0,45.62769429,-122.0234513,4/29/17 0:00,1,0,0,0,0,0,0,1,1,0,0,0,0,1,0,1,Discover Pass,https://www.wta.org/go-hiking/hikes/hadley-trail
227,Myrtle Falls,Mount Rainier Area,SW - Longmire/Paradise,0.8,roundtrip,185.0,5600.0,3.5,4,46.78612695,-121.7359132,10/31/21 0:00,39,0,0,0,1,0,0,1,1,0,1,0,0,0,1,1,National Park Pass,https://www.wta.org/go-hiking/hikes/myrtle-falls
228,Crestwoods Park Trail,Puget Sound and Islands,Seattle-Tacoma Area,1.5,trails,195.0,235.0,3.0,1,47.69313941,-122.1972831,8/7/21 0:00,6,0,0,0,0,0,0,0,0,0,0,0,0,0,0,0,,https://www.wta.org/go-hiking/hikes/crestwood-park-trail
229,Capitol State Forest - Waddell Basin West,Olympic Peninsula,Olympia,9.22,one-way,1390.0,1035.0,0.0,0,46.93909815,-123.077538,9/1/19 0:00,5,0,0,0,0,0,0,0,0,0,0,0,0,1,0,0,Discover Pass,https://www.wta.org/go-hiking/hikes/waddell-basin-west
230,Illahee Lake Trail,Puget Sound and Islands,Seattle-Tacoma Area,0.5,roundtrip,35.0,370.0,0.0,0,47.61672307,-122.025404,3/15/21 0:00,1,0,0,1,0,0,0,0,0,0,0,0,0,1,0,1,No pass,https://www.wta.org/go-hiking/hikes/illahee-lake-trail
231,Lyre Conservation Area,Olympic Peninsula,Northern Coast,2.5,roundtrip,235.0,180.0,5.0,1,48.14730939,-123.8235408,7/26/21 0:00,8,1,0,0,0,0,0,0,0,0,1,0,0,1,0,1,No pass,https://www.wta.org/go-hiking/hikes/lyre-conservation-area
232,Sunset Hill Park,Puget Sound and Islands,Seattle-Tacoma Area,0.25,roundtrip,90.0,290.0,1.0,1,47.68319501,-122.400527,8/23/21 0:00,6,0,0,0,0,0,0,0,1,0,0,0,0,1,0,1,No pass,https://www.wta.org/go-hiking/hikes/sunset-hill-park
233,Nute's Pond Park,Puget Sound and Islands,Seattle-Tacoma Area,1.5,roundtrip,10.0,280.0,0.0,0,47.58172576,-122.5066566,2/21/20 0:00,1,0,0,1,0,0,0,0,0,0,0,0,0,1,0,1,No pass,https://www.wta.org/go-hiking/hikes/nutes-pond-park
234,Moments in Time Interpretive Trail,Olympic Peninsula,Northern Coast,1.0,roundtrip,25.0,600.0,4.5,2,48.057893,-123.788611,6/25/21 0:00,6,0,0,1,0,1,0,1,1,0,1,0,0,0,1,1,National Park Pass,https://www.wta.org/go-hiking/hikes/moments-in-time-trail
235,Diablo Lake,North Cascades,North Cascades Highway - Hwy 20,7.6,roundtrip,1400.0,1950.0,3.22,36,48.7205841,-121.1216068,9/12/21 0:00,206,0,0,1,0,0,0,0,1,0,0,0,0,1,0,0,No pass,https://www.wta.org/go-hiking/hikes/diablo-lake
236,White River,Central Cascades,Stevens Pass - East,8.2,roundtrip,900.0,2507.0,3.0,6,47.96273849,-120.9449988,11/4/21 0:00,82,0,1,0,0,1,0,0,1,0,1,0,0,1,0,1,Northwest Forest Pass,https://www.wta.org/go-hiking/hikes/white-river
237,Selah Butte,Central Washington,Yakima,,,,,3.33,6,46.72975328,-120.4525584,3/21/21 0:00,40,0,0,0,0,0,0,0,0,0,0,0,0,0,0,0,,https://www.wta.org/go-hiking/hikes/selah-butte
238,Jarrell Cove State Park - Harstine Island,Olympic Peninsula,Kitsap Peninsula,1.5,roundtrip,200.0,175.0,3.5,6,47.2303176,-122.8835855,8/1/21 0:00,12,1,1,0,0,1,0,0,0,0,0,0,0,1,0,1,Discover Pass,https://www.wta.org/go-hiking/hikes/harstine-island-state-park
239,Bayshore Preserve,Olympic Peninsula,Olympia,2.0,trails,75.0,40.0,2.0,1,47.248556,-123.044222,9/8/21 0:00,3,1,0,0,0,0,0,0,0,0,1,0,0,0,1,1,No pass,https://www.wta.org/go-hiking/hikes/bayshore-preserve
240,Yellow Lake,Issaquah Alps,,1.25,roundtrip,20.0,420.0,3.5,2,47.56972181,-122.0154476,8/1/21 0:00,8,0,0,1,0,0,0,1,0,0,1,0,0,1,0,1,No pass,https://www.wta.org/go-hiking/hikes/yellow-lake
241,Lookout Mountain Forest Preserve,Puget Sound and Islands,Bellingham Area,6.5,trails,1000.0,,3.43,7,48.71906936,-122.3553586,10/16/21 0:00,55,0,1,1,1,0,0,1,0,0,0,0,0,1,0,1,No pass,https://www.wta.org/go-hiking/hikes/lookout-mountain-forest-preserve
242,Galbraith Mountain,Puget Sound and Islands,Bellingham Area,65.0,trails,1785.0,1785.0,0.0,0,48.74400734,-122.4263084,2/22/20 0:00,1,0,0,0,0,0,0,0,1,0,0,0,0,0,0,0,No pass,https://www.wta.org/go-hiking/hikes/galbraith-mountain
243,Ludlow Falls Interpretive Trail,Olympic Peninsula,Hood Canal,0.6,roundtrip,100.0,100.0,0.0,0,47.91949144,-122.7065563,9/15/21 0:00,4,0,0,1,1,0,0,0,0,0,0,0,0,1,0,1,No pass,https://www.wta.org/go-hiking/hikes/ludlow-falls-interpretive-trail
244,Blue Lake Creek,South Cascades,Dark Divide,4.8,roundtrip,2100.0,4000.0,3.5,10,46.41018,-121.73369,10/7/21 0:00,29,0,0,1,1,0,0,0,0,0,0,0,1,1,0,0,No pass,https://www.wta.org/go-hiking/hikes/blue-lake-creek
245,Mount Washington,Olympic Peninsula,Hood Canal,4.0,roundtrip,3190.0,,3.67,9,47.52035982,-123.2351875,8/3/21 0:00,37,0,0,0,0,0,0,1,0,1,0,1,0,1,0,0,Northwest Forest Pass,https://www.wta.org/go-hiking/hikes/mount-washington
246,Lena Lake - Valley of Silent Men Snowshoe,Olympic Peninsula,,10.0,roundtrip,2000.0,2800.0,3.2,5,47.6008706,-123.1455854,8/2/21 0:00,15,0,0,0,0,1,0,0,0,0,0,0,0,1,0,0,Northwest Forest Pass,https://www.wta.org/go-hiking/hikes/lena-lake-valley-of-silent-men-snowshoe
247,Cold Creek Loop via Tinkham and Silver Peaks,Snoqualmie Region,Snoqualmie Pass,8.0,roundtrip,2600.0,4500.0,3.44,9,47.366011,-121.4199016,9/25/21 0:00,135,0,0,1,0,0,1,1,1,0,0,1,1,1,0,0,No pass,https://www.wta.org/go-hiking/hikes/cold-creek
248,North Fork Skykomish River,Central Cascades,Stevens Pass - West,10.0,roundtrip,1000.0,4000.0,2.86,7,47.9279415,-121.2731497,9/4/21 0:00,83,0,1,0,0,1,0,1,1,1,0,1,1,0,0,0,Northwest Forest Pass,https://www.wta.org/go-hiking/hikes/north-fork-skykomish-river
249,Elk Mountain to Maiden Peak,Olympic Peninsula,Pacific Coast,8.0,roundtrip,840.0,6625.0,4.75,4,47.93445793,-123.320909,9/7/21 0:00,37,0,0,0,0,0,0,1,1,0,1,1,1,0,0,0,National Park Pass,https://www.wta.org/go-hiking/hikes/elk-mtn-to-maiden-peak
250,Glacier Basin,Mount Rainier Area,NE - Sunrise/White River,6.5,roundtrip,1600.0,5900.0,4.17,36,46.90215,-121.6436833,10/7/21 0:00,365,0,1,1,0,0,0,1,1,0,1,0,1,0,1,1,National Park Pass,https://www.wta.org/go-hiking/hikes/glacier-basin
251,Windy Peak Loop,North Cascades,Pasayten,14.8,roundtrip,3830.0,8060.0,5.0,1,48.908329,-119.903878,6/21/20 0:00,4,0,0,0,0,0,0,0,0,1,1,0,0,0,0,0,Northwest Forest Pass,https://www.wta.org/go-hiking/hikes/windy-peak-loop
252,Sand Point,Olympic Peninsula,Pacific Coast,6.0,roundtrip,150.0,100.0,3.12,8,48.15400492,-124.6689892,9/25/21 0:00,61,1,0,0,0,0,0,0,0,0,1,0,1,0,1,1,National Park Pass,https://www.wta.org/go-hiking/hikes/sand-point
253,Rialto Beach and Hole-in-the-Wall,Olympic Peninsula,Pacific Coast,4.0,roundtrip,,,4.15,26,47.92115,-124.6381833,10/16/21 0:00,194,1,0,0,0,0,0,0,0,0,1,0,1,0,1,1,,https://www.wta.org/go-hiking/hikes/rialto-beach-hole-in-the-wall
254,Spider Meadow and Phelps Basin,Central Cascades,Stevens Pass - East,13.0,roundtrip,1900.0,5400.0,4.19,27,48.08291667,-120.8349667,10/21/21 0:00,245,0,0,0,0,1,0,1,1,0,1,0,1,0,0,0,No pass,https://www.wta.org/go-hiking/hikes/spider-meadows
255,Huckleberry Creek,Mount Rainier Area,Chinook Pass - Hwy 410,8.6,one-way,3835.0,6778.0,3.22,9,47.00928924,-121.6171074,10/7/21 0:00,70,0,1,0,0,1,0,0,1,0,0,1,0,0,0,1,Northwest Forest Pass,https://www.wta.org/go-hiking/hikes/huckleberry-creek
256,North Fork Skokomish River,Olympic Peninsula,Hood Canal,15.2,one-way,3568.0,4688.0,3.57,7,47.51569352,-123.3295155,11/3/21 0:00,229,0,1,0,0,0,0,0,1,0,0,1,1,0,1,0,National Park Pass,https://www.wta.org/go-hiking/hikes/north-fork-skokomish-river
257,Little Tahoma,Mount Rainier Area,NE - Sunrise/White River,,,,,3.33,3,46.8937515,-121.5792006,7/3/20 0:00,10,0,0,0,0,0,0,0,0,0,0,0,0,0,0,0,,https://www.wta.org/go-hiking/hikes/little-tahoma
258,Goat Island Mountain,Mount Rainier Area,NE - Sunrise/White River,,,,7288.0,4.5,2,46.88817856,-121.6105843,9/25/21 0:00,18,0,0,0,0,0,0,0,0,0,0,0,0,0,0,0,National Park Pass,https://www.wta.org/go-hiking/hikes/goat-island-mountain
259,Forest Lake,Mount Rainier Area,NE - Sunrise/White River,4.4,roundtrip,1250.0,6920.0,4.0,4,46.91461667,-121.6423333,9/7/21 0:00,19,0,0,1,0,0,0,1,1,0,1,1,1,0,1,1,National Park Pass,https://www.wta.org/go-hiking/hikes/forest-lake
260,Pratt River Trail,Snoqualmie Region,North Bend Area,13.0,roundtrip,1500.0,2240.0,2.67,3,47.53115449,-121.5869594,9/6/21 0:00,24,0,1,0,0,1,1,0,0,0,0,0,0,0,0,0,Northwest Forest Pass,https://www.wta.org/go-hiking/hikes/pratt-river-trail-1
261,High Lakes Loop,Mount Rainier Area,SW - Longmire/Paradise,3.0,roundtrip,600.0,5425.0,3.7,10,46.76809549,-121.7288217,10/3/21 0:00,42,0,0,1,0,0,1,1,1,0,0,1,0,0,1,1,National Park Pass,https://www.wta.org/go-hiking/hikes/high-lakes-loop
262,Banshee Peak,Mount Rainier Area,NE - Sunrise/White River,,,,7400.0,1.0,1,46.85115209,-121.6205406,7/28/21 0:00,21,0,1,1,1,1,0,1,1,1,1,1,1,0,1,0,,https://www.wta.org/go-hiking/hikes/banshee-peak
263,West Elwha,Olympic Peninsula,Pacific Coast,6.0,roundtrip,500.0,650.0,4.12,8,48.03177536,-123.595899,8/1/21 0:00,47,0,1,0,0,0,0,1,0,0,1,0,0,0,1,1,National Park Pass,https://www.wta.org/go-hiking/hikes/west-elwha
264,Seattle View Trail,Issaquah Alps,Tiger Mountain,1.2,roundtrip,,,2.5,4,47.4840492,-121.9760768,7/2/21 0:00,15,0,0,0,0,0,0,0,1,0,0,0,0,1,0,0,Discover Pass,https://www.wta.org/go-hiking/hikes/seattle-view-trail
265,Poo Top,Issaquah Alps,Tiger Mountain,0.8,roundtrip,,2948.0,3.0,1,47.522994,-122.0269826,7/2/21 0:00,77,0,0,0,0,0,0,0,0,0,0,0,0,1,0,1,Discover Pass,https://www.wta.org/go-hiking/hikes/poo-top
266,Summerland - Panhandle Gap,Mount Rainier Area,NE - Sunrise/White River,12.0,roundtrip,2950.0,6800.0,4.63,51,46.88836667,-121.6110333,10/16/21 0:00,625,0,0,1,1,1,1,1,1,0,1,1,1,0,1,0,National Park Pass,https://www.wta.org/go-hiking/hikes/summerland-panhandle-gap
267,Paddy-Go-Easy Pass,Snoqualmie Region,Salmon La Sac/Teanaway,6.0,roundtrip,2560.0,6080.0,3.62,13,47.5329,-121.0825833,10/30/21 0:00,111,0,0,0,0,0,0,1,1,0,0,1,0,1,0,0,No pass,https://www.wta.org/go-hiking/hikes/paddy-go-easy-pass
268,Hope and Mig Lakes,Central Cascades,Stevens Pass - West,5.0,roundtrip,1550.0,4650.0,3.12,8,47.7128,-121.1073167,10/24/21 0:00,141,0,0,1,0,0,0,0,0,0,0,0,0,1,0,1,Northwest Forest Pass,https://www.wta.org/go-hiking/hikes/mig-lake
269,Gold Mountain,Olympic Peninsula,Kitsap Peninsula,4.0,roundtrip,1087.0,1687.0,3.7,10,47.5521027,-122.8276171,8/6/21 0:00,75,0,0,0,0,0,1,1,1,1,1,0,0,1,0,1,Discover Pass,https://www.wta.org/go-hiking/hikes/gold-mountain
270,Indian Henry's Hunting Ground via Tahoma Creek,Mount Rainier Area,SW - Longmire/Paradise,12.0,roundtrip,2520.0,5400.0,3.86,7,46.7500413,-121.8129923,8/18/19 0:00,25,0,0,1,0,0,0,1,1,0,1,1,0,0,1,0,National Park Pass,https://www.wta.org/go-hiking/hikes/indian-henrys-hunting-ground
271,Beacon Rock State Park - Hardy Creek,Southwest Washington,Columbia River Gorge - WA,,,,,2.0,1,45.64302806,-122.012701,7/26/20 0:00,13,0,0,0,0,0,0,0,0,0,0,0,0,1,0,0,Discover Pass,https://www.wta.org/go-hiking/hikes/hardy-creek
272,Hidden Forest Trail,Issaquah Alps,Tiger Mountain,7.4,roundtrip,2650.0,2340.0,3.67,6,47.49995171,-122.0217665,10/21/21 0:00,54,0,0,0,0,0,1,0,1,0,0,0,0,1,0,0,No pass,https://www.wta.org/go-hiking/hikes/hidden-forest
273,Hobart - Middle Tiger Railroad Trail,Issaquah Alps,Tiger Mountain,10.2,roundtrip,1550.0,2180.0,3.5,4,47.48081719,-121.9663176,11/6/21 0:00,19,0,0,0,0,0,1,1,1,0,1,0,0,1,0,1,Discover Pass,https://www.wta.org/go-hiking/hikes/hobart-middle-tiger-railroad-grade
274,High School Trail,Issaquah Alps,Tiger Mountain,2.1,roundtrip,375.0,480.0,3.67,3,47.5192503,-122.0298375,10/9/21 0:00,123,0,0,0,0,0,1,1,0,0,1,0,0,1,0,1,No pass,https://www.wta.org/go-hiking/hikes/high-school-trail
275,Golden Gate,Mount Rainier Area,SW - Longmire/Paradise,3.2,roundtrip,1000.0,6400.0,4.0,6,46.78603333,-121.7349833,10/2/21 0:00,96,0,0,0,1,0,1,1,1,0,1,0,0,0,1,0,National Park Pass,https://www.wta.org/go-hiking/hikes/golden-gate
276,Grand Canyon of Fifteenmile Creek,Issaquah Alps,Tiger Mountain,1.4,roundtrip,350.0,1200.0,2.25,4,,,10/31/21 0:00,24,0,1,0,1,0,0,0,0,0,0,0,0,0,0,0,Discover Pass,https://www.wta.org/go-hiking/hikes/grand-canyon-of-fifteenmile-creek
277,Green Lake,Puget Sound and Islands,Seattle-Tacoma Area,2.8,roundtrip,,164.0,3.31,13,47.66897105,-122.3401451,8/25/21 0:00,51,0,0,1,0,1,1,0,0,0,1,0,0,1,0,1,No pass,https://www.wta.org/go-hiking/hikes/green-lake-1
278,Gas Line Trail,Issaquah Alps,Tiger Mountain,1.0,roundtrip,,,2.0,2,47.4823299,-121.9241794,11/3/21 0:00,9,0,0,0,0,0,0,0,0,0,0,0,0,1,0,0,Discover Pass,https://www.wta.org/go-hiking/hikes/gas-line-trail
279,Fort Steilacoom Park,Puget Sound and Islands,Seattle-Tacoma Area,4.1,trails,154.0,376.0,5.0,3,47.17741803,-122.5591689,8/1/21 0:00,29,0,0,1,0,0,0,1,1,0,0,0,0,1,0,1,No pass,https://www.wta.org/go-hiking/hikes/fort-steilacoom-park
280,Tahoma Creek Suspension Bridge - Emerald Ridge Loop,Mount Rainier Area,SW - Longmire/Paradise,14.2,roundtrip,3100.0,5600.0,3.12,8,46.8379564,-121.89704,8/18/21 0:00,81,0,0,0,0,0,0,0,1,0,0,0,0,0,1,0,National Park Pass,https://www.wta.org/go-hiking/hikes/emerald-ridge
281,Fifteenmile Creek Railroad Grade,Issaquah Alps,Tiger Mountain,4.8,roundtrip,,,1.75,4,47.48850625,-121.9287747,5/15/21 0:00,29,0,0,0,0,0,0,0,0,0,0,0,0,0,0,0,Discover Pass,https://www.wta.org/go-hiking/hikes/fifteenmile-creek-railroad-grade
282,Explorer Falls,North Cascades,Mountain Loop Highway,,,,,3.36,14,,,8/22/21 0:00,126,0,0,0,0,0,0,0,0,0,0,0,0,0,0,0,Discover Pass,https://www.wta.org/go-hiking/hikes/explorer-falls
283,Federation Forest State Park,Mount Rainier Area,Chinook Pass - Hwy 410,5.0,roundtrip,150.0,1800.0,3.25,12,47.15295296,-121.7005348,9/25/21 0:00,104,0,1,0,0,1,0,0,0,0,0,0,0,1,0,1,Discover Pass,https://www.wta.org/go-hiking/hikes/federation-forest
284,Dumbbell Lake,South Cascades,White Pass/Cowlitz River Valley,13.5,roundtrip,2070.0,5600.0,1.67,6,46.64505,-121.382367,10/8/21 0:00,29,0,1,1,0,1,1,1,1,0,1,0,1,1,0,1,Northwest Forest Pass,https://www.wta.org/go-hiking/hikes/dumbbell-lake-1
285,Ira Spring Connector Trail,Snoqualmie Region,North Bend Area,,,,,3.5,2,47.42994533,-121.5911865,9/9/21 0:00,43,0,0,0,0,0,0,0,0,0,0,0,0,0,0,0,Discover Pass,https://www.wta.org/go-hiking/hikes/dirty-harrys-connector
286,Dirty Harry's Museum,Snoqualmie Region,Snoqualmie Pass,5.6,roundtrip,2800.0,3100.0,4.0,4,47.4342752,-121.6326678,10/30/21 0:00,107,0,0,0,0,0,0,0,0,0,0,0,0,1,0,0,Discover Pass,https://www.wta.org/go-hiking/hikes/dirty-harrys-museum
287,Cramer Mountain Loop,South Cascades,White Pass/Cowlitz River Valley,14.0,roundtrip,1800.0,6000.0,3.0,5,46.64473333,-121.3822667,6/28/20 0:00,10,0,0,1,0,0,1,1,0,0,1,0,0,0,0,0,Northwest Forest Pass,https://www.wta.org/go-hiking/hikes/cramer-mountain-loop
288,Copper Mountain,Mount Rainier Area,SW - Longmire/Paradise,,,3868.0,6280.0,0.0,0,46.7973304,-121.8275986,7/16/20 0:00,4,0,0,0,0,0,0,0,1,1,0,1,0,0,0,0,,https://www.wta.org/go-hiking/hikes/copper-mountain-2
289,Cultus Mountain,Puget Sound and Islands,Bellingham Area,,,,,4.0,2,48.42487198,-122.1420479,4/23/21 0:00,5,0,0,0,0,0,0,0,0,0,0,0,0,0,0,0,,https://www.wta.org/go-hiking/hikes/cultus-mountain-mt-vernon-area
290,Damon Point,Southwest Washington,Long Beach Area,4.0,roundtrip,,10.0,3.27,11,46.946416,-124.133289,10/14/21 0:00,67,1,0,0,0,0,0,0,1,0,1,0,0,1,0,1,No pass,https://www.wta.org/go-hiking/hikes/damon-point-state-park
291,Griffiths-Priday State Park - Copalis River Spit,Southwest Washington,Long Beach Area,4.0,roundtrip,40.0,25.0,4.0,6,47.114137,-124.177076,3/12/21 0:00,38,1,1,0,0,0,0,0,0,0,1,0,0,1,0,1,Discover Pass,https://www.wta.org/go-hiking/hikes/copalis-river-spit
292,Carter Falls,Mount Rainier Area,SW - Longmire/Paradise,2.8,roundtrip,660.0,3650.0,3.83,18,46.76620587,-121.792717,10/19/21 0:00,147,0,1,0,1,1,0,1,1,0,0,0,0,0,1,1,National Park Pass,https://www.wta.org/go-hiking/hikes/carter-falls
293,Capitol State Forest - Capitol Peak,Olympic Peninsula,Olympia,9.0,roundtrip,1300.0,2659.0,3.38,8,46.9731078,-123.1380272,4/18/21 0:00,36,0,0,0,0,0,0,0,1,1,0,0,0,0,0,0,Discover Pass,https://www.wta.org/go-hiking/hikes/capitol-peak
294,Boulder Lake,Central Cascades,Stevens Pass - West,13.8,roundtrip,2140.0,3700.0,2.5,4,47.9703119,-121.5560001,6/23/21 0:00,47,0,0,1,0,1,0,0,0,0,0,0,1,0,0,0,Discover Pass,https://www.wta.org/go-hiking/hikes/boulder-lake
295,Bus Trail,Issaquah Alps,Tiger Mountain,0.7,roundtrip,200.0,500.0,3.25,4,47.5297428,-121.9961387,11/3/21 0:00,142,0,0,0,0,0,0,0,0,0,0,0,0,0,0,1,Discover Pass,https://www.wta.org/go-hiking/hikes/bus-trail
296,Bootleg Trail,Issaquah Alps,Tiger Mountain,4.6,roundtrip,1300.0,2200.0,3.2,5,47.5303687,-121.9436016,5/22/21 0:00,76,0,0,0,0,0,0,0,0,0,0,0,0,0,0,0,Discover Pass,https://www.wta.org/go-hiking/hikes/bootleg
297,Bonneville Trail,Issaquah Alps,Tiger Mountain,1.2,roundtrip,,,3.0,4,47.52950464,-122.0086925,3/20/21 0:00,21,0,0,0,0,0,0,0,0,0,0,0,0,0,0,0,Discover Pass,https://www.wta.org/go-hiking/hikes/bonneville-trail
298,Brink Trail,Issaquah Alps,Tiger Mountain,1.2,roundtrip,,,3.75,4,47.5295808,-121.9957352,9/10/21 0:00,21,0,0,0,0,0,0,0,0,0,0,0,0,1,0,1,Discover Pass,https://www.wta.org/go-hiking/hikes/brink-trail
299,Blake Island State Park,Puget Sound and Islands,Seattle-Tacoma Area,8.0,roundtrip,190.0,190.0,0.0,0,47.54231774,-122.4829044,7/21/21 0:00,17,1,0,0,0,1,1,0,1,0,1,0,1,1,0,1,No pass,https://www.wta.org/go-hiking/hikes/blake-island-state-park
300,Island Crest Park,Puget Sound and Islands,Seattle-Tacoma Area,1.6,roundtrip,150.0,325.0,0.0,0,47.55145366,-122.2234771,8/22/21 0:00,8,0,0,0,0,1,1,1,0,0,1,0,0,1,0,1,No pass,https://www.wta.org/go-hiking/hikes/island-crest-park
301,Leecher Mountain Lookout,North Cascades,Methow/Sawtooth,2.4,roundtrip,,5008.0,0.0,0,48.2508545,-120.0021493,7/10/21 0:00,24,0,0,0,0,0,0,0,0,0,0,0,0,0,0,1,Northwest Forest Pass,https://www.wta.org/go-hiking/hikes/leecher-mountain-lookout
302,Herringbone Hill,North Cascades,Methow/Sawtooth,2.2,roundtrip,544.0,3152.0,0.0,0,48.46506313,-120.2612342,10/27/21 0:00,3,0,0,0,0,0,0,0,1,1,1,0,0,0,0,1,,https://www.wta.org/go-hiking/hikes/herringbone-hill
303,Walupt Lake Loop,South Cascades,,15.3,roundtrip,1650.0,5712.0,0.0,0,46.42308949,-121.4735492,8/11/19 0:00,2,0,0,0,0,0,0,1,1,0,1,1,0,1,0,0,,https://www.wta.org/go-hiking/hikes/walupt-lake-loop
304,Loch Katrine,Snoqualmie Region,North Bend Area,7.2,roundtrip,1500.0,3000.0,3.0,1,47.64924805,-121.6457316,5/22/21 0:00,9,0,1,1,0,0,0,1,1,0,1,0,0,0,0,0,,https://www.wta.org/go-hiking/hikes/loch-katrine
305,Osprey Park,Central Cascades,Stevens Pass - West,2.0,trails,,,4.0,1,47.86908826,-121.8215894,2/15/21 0:00,9,0,1,0,0,0,0,0,0,0,1,0,0,0,0,1,No pass,https://www.wta.org/go-hiking/hikes/osprey-park
306,Growden Heritage Site,Eastern Washington,Okanogan Highlands/Kettle River Range,0.2,roundtrip,,,0.0,0,48.58534,-118.304655,8/27/17 0:00,1,0,0,0,0,0,0,0,0,0,0,0,0,0,0,0,No pass,https://www.wta.org/go-hiking/hikes/growden-heritage-site
307,Trillium Community Forest,Puget Sound and Islands,Whidbey Island,7.0,trails,100.0,260.0,3.0,1,48.05010133,-122.5678968,10/18/20 0:00,4,0,0,1,0,0,1,1,0,0,1,0,0,1,0,1,No pass,https://www.wta.org/go-hiking/hikes/trillium-community-forest-land
308,Northway Trail,Mount Rainier Area,Chinook Pass - Hwy 410,11.0,roundtrip,2900.0,6800.0,0.0,0,46.96153796,-121.4830184,9/5/21 0:00,9,0,0,0,0,0,0,1,1,1,0,0,0,1,0,0,,https://www.wta.org/go-hiking/hikes/northway-trail
309,Evergreen State College - Organic Farm Trail,Olympic Peninsula,Olympia,0.8,roundtrip,60.0,230.0,0.0,0,47.07081897,-122.9782803,4/23/19 0:00,1,0,0,0,0,0,1,1,0,0,1,0,0,1,0,1,,https://www.wta.org/go-hiking/hikes/evergreen-state-college-organic-farm-trail
310,Old Timers' Horse Trail,Eastern Washington,Selkirk Range,,,800.0,2600.0,0.0,0,48.471124,-117.601336,11/3/20 0:00,2,0,0,0,0,0,0,0,0,0,0,0,0,0,0,0,,https://www.wta.org/go-hiking/hikes/old-timers-horse-trail
311,Colquhoun Peak,Mount Rainier Area,Chinook Pass - Hwy 410,1.2,roundtrip,630.0,5173.0,2.0,1,47.132167,-121.4598,7/5/21 0:00,14,0,0,0,0,0,0,0,0,1,0,0,0,1,0,1,No pass,https://www.wta.org/go-hiking/hikes/colquhon-peak
312,Hidden Cove Trail,Puget Sound and Islands,Seattle-Tacoma Area,2.0,trails,,,0.0,0,47.691655,-122.529067,,0,0,0,0,0,0,0,0,0,0,0,0,0,1,0,1,No pass,https://www.wta.org/go-hiking/hikes/hidden-cove-trail
313,South Skookum Lake Trail,Eastern Washington,Selkirk Range,1.38,roundtrip,,,0.0,0,,,8/22/19 0:00,3,0,0,1,0,0,0,1,1,0,0,0,0,1,0,1,No pass,https://www.wta.org/go-hiking/hikes/south-skookum-lake-trail
314,Chelan Gorge Trail,Central Washington,Wenatchee,2.0,roundtrip,150.0,,0.0,0,,,11/18/19 0:00,1,0,1,1,0,0,0,0,0,0,0,0,0,1,0,0,No pass,https://www.wta.org/go-hiking/hikes/chelan-gorge-trail
315,Salsbury Point Park,Puget Sound and Islands,Seattle-Tacoma Area,,,,,0.0,0,47.856502,-122.607126,,0,1,0,0,0,0,0,0,0,0,0,0,0,0,0,1,No pass,https://www.wta.org/go-hiking/hikes/salsbury-point-park
316,Lily Point Marine Park and Reserve,Puget Sound and Islands,Bellingham Area,1.5,roundtrip,,,0.0,0,48.97652928,-123.0616077,6/1/14 0:00,1,1,0,0,0,1,0,0,0,0,1,0,0,0,0,1,No pass,https://www.wta.org/go-hiking/hikes/lily-point-marine-park-and-reserve
317,Whidbey Institute,Puget Sound and Islands,Whidbey Island,4.5,trails,420.0,420.0,0.0,0,47.97806369,-122.4103281,8/25/20 0:00,4,0,0,1,0,1,0,1,0,0,1,0,0,0,1,1,No pass,https://www.wta.org/go-hiking/hikes/whidbey-institute
318,My Neighborhood,Puget Sound and Islands,,,,,,5.0,1,47.71487255,-122.1793842,9/7/21 0:00,93,0,0,0,0,0,0,0,0,0,0,0,0,0,0,0,No pass,https://www.wta.org/go-hiking/hikes/my-neighborhood
319,Chair Peak,Snoqualmie Region,Snoqualmie Pass,9.0,roundtrip,,6244.0,0.0,0,47.41535481,-121.4433131,9/4/21 0:00,8,0,0,0,0,0,0,0,1,1,0,1,0,1,0,0,Northwest Forest Pass,https://www.wta.org/go-hiking/hikes/chair-peak
320,Dandy Pass Road Snowshoe,Snoqualmie Region,Snoqualmie Pass,4.0,roundtrip,700.0,2840.0,0.0,0,47.30629384,-121.3170909,12/13/20 0:00,2,0,0,0,0,0,0,0,1,0,0,0,0,0,0,0,Sno-Parks Permit,https://www.wta.org/go-hiking/hikes/dandy-pass-road-snowshoe
321,Peterson Lake Natural Area,Puget Sound and Islands,Seattle-Tacoma Area,2.0,roundtrip,,,0.0,0,47.43743502,-122.083683,7/21/20 0:00,2,0,0,1,0,0,0,0,0,0,1,0,0,0,0,1,,https://www.wta.org/go-hiking/hikes/peterson-lake-natural-area
322,Green River Trail,Puget Sound and Islands,Seattle-Tacoma Area,19.7,one-way,,50.0,2.67,3,47.46803584,-122.2492933,8/22/21 0:00,10,0,1,0,0,0,1,0,0,0,1,0,0,1,0,1,No pass,https://www.wta.org/go-hiking/hikes/green-river-trail
323,Hurley Road Snowshoe,Central Cascades,Blewett Pass,,,,,0.0,0,,,1/10/21 0:00,3,0,0,0,0,0,0,0,0,0,0,0,0,0,0,0,,https://www.wta.org/go-hiking/hikes/hurley-road-snowshoe
324,Ragged Ridge,Eastern Washington,Spokane Area/Coeur d'Alene,15.1,roundtrip,3000.0,5300.0,5.0,1,47.90459717,-117.1029498,6/20/21 0:00,7,0,0,0,0,1,1,1,1,1,1,1,0,0,0,0,Discover Pass,https://www.wta.org/go-hiking/hikes/ragged-ridge
325,Rooster Comb,Central Washington,Wenatchee,,,,,0.0,0,,,6/14/21 0:00,3,0,0,0,0,0,0,0,0,0,0,0,0,0,0,0,,https://www.wta.org/go-hiking/hikes/rooster-comb
326,Jacobson Preserve,Central Washington,Wenatchee,2.0,roundtrip,340.0,1440.0,0.0,0,47.41131669,-120.352639,10/9/21 0:00,14,0,0,0,0,0,0,1,0,1,1,0,0,1,0,1,No pass,https://www.wta.org/go-hiking/hikes/jacobson-preserve
327,Zig Zag Lake,South Cascades,Mount St. Helens,1.0,roundtrip,730.0,4000.0,3.17,6,45.84643333,-122.1111667,7/25/19 0:00,7,0,0,1,0,1,0,0,0,0,1,0,0,0,0,0,Northwest Forest Pass,https://www.wta.org/go-hiking/hikes/zig-zag-lake
328,Windy Ridge Trail,South Cascades,Mount St. Helens,4.0,roundtrip,200.0,4200.0,3.38,8,46.24995,-122.13615,9/13/21 0:00,36,0,0,0,0,0,0,1,1,0,0,1,0,0,1,0,Northwest Forest Pass,https://www.wta.org/go-hiking/hikes/windy-ridge
329,Windy Pass,Central Cascades,Leavenworth Area,8.0,one-way,2800.0,7200.0,5.0,3,47.53596428,-120.8135819,8/22/21 0:00,58,0,0,1,0,0,1,0,1,0,0,1,1,0,1,0,Northwest Forest Pass,https://www.wta.org/go-hiking/hikes/windy-pass-1
330,Bertha May and Granite Lakes,South Cascades,White Pass/Cowlitz River Valley,3.0,roundtrip,900.0,4400.0,5.0,6,46.705,-121.9319,8/14/21 0:00,62,0,0,1,0,0,1,0,1,0,0,0,0,1,0,1,Northwest Forest Pass,https://www.wta.org/go-hiking/hikes/bertha-may-and-granite-lakes
331,Mill Gulch Trail,Snoqualmie Region,Cle Elum Area,5.2,roundtrip,900.0,3600.0,0.0,0,47.25624327,-120.7095391,5/8/21 0:00,2,0,0,0,0,0,0,0,0,0,0,0,0,0,0,0,,https://www.wta.org/go-hiking/hikes/mill-gulch-trail
332,Frog Mountain,Puget Sound and Islands,Seattle-Tacoma Area,,,,,0.0,0,,,7/9/21 0:00,3,0,0,0,0,0,0,0,0,0,0,0,0,0,0,0,,https://www.wta.org/go-hiking/hikes/frog-mountain-1
333,Millwood Interurban Trail,Eastern Washington,Spokane Area/Coeur d'Alene,1.0,roundtrip,,,0.0,0,47.68581688,-117.2933435,8/24/19 0:00,1,0,0,0,0,0,0,0,0,0,0,0,0,0,0,1,No pass,https://www.wta.org/go-hiking/hikes/millwood-interurban-trail
334,Llandover Woods Greenspace,Puget Sound and Islands,Seattle-Tacoma Area,0.7,roundtrip,60.0,170.0,4.0,1,47.73411376,-122.361926,2/3/21 0:00,13,0,0,0,0,0,1,0,0,0,0,0,0,1,0,0,No pass,https://www.wta.org/go-hiking/hikes/llandover-woods-greenspace
335,Antoine Peak Conservation Area - Summit Loop,Eastern Washington,Spokane Area/Coeur d'Alene,5.5,roundtrip,600.0,,0.0,0,47.71884307,-117.1967324,3/3/21 0:00,21,0,0,0,0,0,0,0,1,1,0,0,0,1,0,0,,https://www.wta.org/go-hiking/hikes/antoine-peak-conservation-area-summit-loop
336,Columbia Breaks Fire Interpretive Trail,North Cascades,Methow/Sawtooth,0.5,roundtrip,,,3.0,1,47.694587,-120.209132,8/20/19 0:00,6,0,0,0,0,0,0,0,0,0,0,0,0,0,0,0,,https://www.wta.org/go-hiking/hikes/columbia-breaks-fire-interprative-trail
337,South Hill Bluff,Eastern Washington,Spokane Area/Coeur d'Alene,23.0,trails,350.0,2340.0,0.0,0,47.628567,-117.429667,1/23/21 0:00,6,0,0,0,0,0,0,1,0,0,1,0,0,1,0,1,No pass,https://www.wta.org/go-hiking/hikes/south-hill-bluff
338,Lake Margaret,Central Cascades,,26.2,one-way,10800.0,7300.0,0.0,0,,,9/26/20 0:00,9,0,0,1,0,1,1,0,1,0,0,1,0,0,0,0,Northwest Forest Pass,https://www.wta.org/go-hiking/hikes/lake-margaret
339,Pickhandle Gap Loop,Mount Rainier Area,Chinook Pass - Hwy 410,8.0,roundtrip,2000.0,6200.0,0.0,0,46.93693116,-121.4692372,10/3/21 0:00,31,0,0,1,0,0,0,1,1,0,0,1,0,1,0,0,,https://www.wta.org/go-hiking/hikes/pickhandle-gap-loop
340,Chopaka Lake,North Cascades,Pasayten,,,,,5.0,1,48.91706335,-119.7021486,10/13/19 0:00,1,0,0,1,0,0,0,1,1,0,1,1,1,0,0,0,No pass,https://www.wta.org/go-hiking/hikes/chopaka-lake
341,Burnt Bridge Creek - Middle Section,Southwest Washington,Vancouver Area,7.6,roundtrip,120.0,,0.0,0,45.634499,-122.6150354,,0,0,0,0,0,0,1,1,0,0,1,0,0,1,0,1,No pass,https://www.wta.org/go-hiking/hikes/burnt-creek-bridge-middle-section
342,Burnt Bridge Creek - Eastern Section,Southwest Washington,Vancouver Area,3.6,roundtrip,20.0,,0.0,0,45.6359179,-122.580157,4/22/21 0:00,3,0,0,0,0,0,1,1,0,0,1,0,0,1,0,1,No pass,https://www.wta.org/go-hiking/hikes/burnt-creek-bridge-eastern-section
343,Lacamas Park - Round Lake to Lower Falls,Southwest Washington,Vancouver Area,3.4,roundtrip,190.0,200.0,4.67,3,45.6039446,-122.4071275,5/6/21 0:00,11,0,0,1,1,0,0,0,0,0,0,0,0,1,0,1,No pass,https://www.wta.org/go-hiking/hikes/lacamas-park-round-lake-to-lower-falls
344,Burnt Bridge Creek - Stewart Glen Section,Southwest Washington,Vancouver Area,2.6,roundtrip,,50.0,0.0,0,45.6733026,-122.6902811,1/29/21 0:00,3,0,1,0,0,0,1,1,0,0,0,0,0,1,0,1,,https://www.wta.org/go-hiking/hikes/burnt-bridge-creek-stewart-glen-section
345,Swauk Meadows Snowshoe,Central Cascades,Blewett Pass,6.7,roundtrip,,,2.5,2,47.33147169,-120.6119227,3/6/21 0:00,10,0,0,0,0,0,0,0,1,0,1,0,0,1,0,0,Sno-Parks Permit,https://www.wta.org/go-hiking/hikes/swauk-meadows-snowshoe
346,Redmond Ridge Trail,Puget Sound and Islands,Seattle-Tacoma Area,4.34,one-way,,,0.0,0,47.69199907,-122.0339227,8/8/18 0:00,1,0,0,0,0,0,0,0,0,0,0,0,0,1,0,1,No pass,https://www.wta.org/go-hiking/hikes/redmond-ridge-trail
347,Grass Lake Nature Park,Olympic Peninsula,Olympia,1.3,roundtrip,,,2.0,1,47.05321292,-122.9601538,6/25/18 0:00,3,0,0,1,0,0,1,0,0,0,1,0,0,0,1,1,No pass,https://www.wta.org/go-hiking/hikes/grass-lake-nature-park
348,Dirtyface Ridge Snowshoe,Central Cascades,Leavenworth Area,1.5,roundtrip,400.0,,0.0,0,47.80879216,-120.7147522,2/20/21 0:00,11,0,0,1,1,0,0,0,1,0,0,0,0,1,0,1,Northwest Forest Pass,https://www.wta.org/go-hiking/hikes/dirty-face-ridge-snowshoe
349,Sperry Peak,North Cascades,Mountain Loop Highway,6.4,roundtrip,3800.0,6120.0,0.0,0,48.0249788,-121.4779115,9/4/21 0:00,4,0,0,1,0,0,0,0,1,1,0,1,0,0,0,0,Northwest Forest Pass,https://www.wta.org/go-hiking/hikes/sperry-peak
350,Anacortes Community Forest Lands - Big Beaver Pond,Puget Sound and Islands,Whidbey Island,2.5,roundtrip,175.0,450.0,3.0,1,48.49158277,-122.6363462,10/13/21 0:00,40,0,0,1,0,0,0,0,0,0,1,0,0,1,0,1,No pass,https://www.wta.org/go-hiking/hikes/big-beaver-pond
351,Tammi Wilson Memorial Trail,Puget Sound and Islands,Bellingham Area,0.82,one-way,,,0.0,0,48.46003255,-122.3391098,8/18/16 0:00,1,0,1,0,0,0,0,0,1,0,0,0,0,1,0,1,No pass,https://www.wta.org/go-hiking/hikes/tammi-wilson-memorial-trail-gages-slough-trail
352,Windy Ridge and Plains of Abraham,South Cascades,Mount St. Helens,8.0,roundtrip,2000.0,4850.0,4.0,11,46.248917,-122.13615,9/13/21 0:00,44,0,0,0,0,0,0,1,1,0,0,1,0,0,1,0,Northwest Forest Pass,https://www.wta.org/go-hiking/hikes/windy-ridge-and-plains-of-abraham
353,Red Mountain,Snoqualmie Region,Cle Elum Area,12.6,roundtrip,3900.0,5722.0,0.0,0,,,10/21/21 0:00,13,0,0,1,0,1,1,0,1,0,0,1,0,0,0,0,Northwest Forest Pass,https://www.wta.org/go-hiking/hikes/red-mountain-3
354,Historic Columbia River Highway State Trail - Mitchell Point,Southwest Washington,Columbia River Gorge - OR,3.0,roundtrip,200.0,,0.0,0,45.6903457,-121.7721713,1/23/21 0:00,2,0,1,0,0,0,0,0,0,0,0,0,0,1,0,1,Oregon State Parks Day-Use,https://www.wta.org/go-hiking/hikes/historic-columbia-river-highway-state-trail
355,West Granite Mountain,Snoqualmie Region,Snoqualmie Pass,,,,,3.2,5,47.39794251,-121.4866447,5/16/21 0:00,50,0,0,0,0,0,0,0,0,0,0,0,0,0,0,0,Northwest Forest Pass,https://www.wta.org/go-hiking/hikes/west-granite-mountain
356,Esperance Park,Puget Sound and Islands,Seattle-Tacoma Area,0.5,roundtrip,50.0,420.0,0.0,0,,,7/12/17 0:00,1,0,0,1,0,0,1,0,0,0,1,0,0,1,0,1,No pass,https://www.wta.org/go-hiking/hikes/esperance-park
357,Blue Stilly,North Cascades,Mountain Loop Highway,,,,30.0,0.0,0,48.195589,-122.193793,2/29/20 0:00,3,0,1,0,0,0,0,0,0,0,1,0,0,1,0,1,Discover Pass,https://www.wta.org/go-hiking/hikes/blue-stilly
358,Lake Ballinger Park,Puget Sound and Islands,Seattle-Tacoma Area,,,,,3.0,2,47.78974476,-122.3292561,6/5/20 0:00,8,0,0,1,0,0,1,0,0,0,0,0,0,1,0,1,No pass,https://www.wta.org/go-hiking/hikes/lake-ballinger-park
359,Palisades Park,Eastern Washington,Spokane Area/Coeur d'Alene,7.0,roundtrip,500.0,2200.0,0.0,0,47.66715124,-117.4876468,11/29/19 0:00,12,0,0,0,0,0,1,1,1,0,1,0,0,1,0,1,No pass,https://www.wta.org/go-hiking/hikes/palisades-park
360,Ape Caves,South Cascades,Mount St. Helens,2.8,roundtrip,350.0,2450.0,4.54,56,46.10831667,-122.21145,9/25/21 0:00,225,0,0,0,0,0,0,0,0,0,0,0,0,0,1,0,Northwest Forest Pass,https://www.wta.org/go-hiking/hikes/ape-cave
361,Titlow Park,Puget Sound and Islands,Seattle-Tacoma Area,2.0,trails,,,3.0,1,47.247787,-122.549911,7/11/20 0:00,4,1,0,1,0,0,0,0,0,0,0,0,0,1,0,1,No pass,https://www.wta.org/go-hiking/hikes/titlow-park
362,Weowna Park,Puget Sound and Islands,Seattle-Tacoma Area,3.5,roundtrip,600.0,320.0,4.33,6,47.60354441,-122.112329,10/12/21 0:00,63,0,0,0,0,1,1,0,0,0,1,0,0,1,0,1,No pass,https://www.wta.org/go-hiking/hikes/weona-park-bellevue
363,Albert Camp,North Cascades,Pasayten,8.6,roundtrip,2900.0,7700.0,1.6,5,48.9069201,-119.8271961,8/14/20 0:00,7,0,0,0,0,0,0,1,0,1,1,1,0,0,0,0,Northwest Forest Pass,https://www.wta.org/go-hiking/hikes/albert-camp
364,Sunrise Peak,North Cascades,Pasayten,,,,,0.0,0,,,8/5/16 0:00,1,0,0,0,0,0,0,0,0,0,0,0,0,0,0,0,,https://www.wta.org/go-hiking/hikes/sunrise-peak-pasayten
365,Billy Goat Loop,North Cascades,Pasayten,50.0,roundtrip,5000.0,7500.0,5.0,1,48.78854503,-120.3178024,7/8/21 0:00,5,0,0,1,0,0,1,1,1,1,1,1,1,0,0,0,Northwest Forest Pass,https://www.wta.org/go-hiking/hikes/billy-goat-loop
366,Hoh River Trail to Blue Glacier,Olympic Peninsula,Pacific Coast,37.0,roundtrip,3700.0,4300.0,4.91,11,47.8594905,-123.9343548,10/31/21 0:00,109,0,1,1,1,1,0,1,1,0,1,0,0,0,1,0,National Park Pass,https://www.wta.org/go-hiking/hikes/hoh-river-blue-glacier
367,Meadowbrook Farm,Snoqualmie Region,North Bend Area,4.85,trails,,,3.0,2,47.50852095,-121.7989773,10/3/21 0:00,18,0,0,0,0,0,0,1,1,0,1,0,0,1,0,1,No pass,https://www.wta.org/go-hiking/hikes/meadowbrook-farm
368,Cedar Creek Park,Puget Sound and Islands,Seattle-Tacoma Area,4.0,roundtrip,300.0,,3.0,1,47.37580214,-122.0593929,7/27/21 0:00,9,0,0,0,0,1,1,0,0,0,0,0,0,1,0,1,,https://www.wta.org/go-hiking/hikes/cedar-creek-park
369,McLaughlin Canyon Trail,Eastern Washington,Okanogan Highlands/Kettle River Range,3.0,roundtrip,200.0,,4.0,1,48.65125542,-119.4382954,4/21/21 0:00,10,0,1,0,0,0,1,1,0,0,1,0,0,0,0,1,No pass,https://www.wta.org/go-hiking/hikes/mclaughlin-canyon-trail
370,Edgar Rock,Mount Rainier Area,Chinook Pass - Hwy 410,3.5,roundtrip,900.0,,3.27,11,46.91975451,-121.056041,6/19/21 0:00,30,0,1,0,0,1,0,1,0,0,1,0,0,0,0,1,No pass,https://www.wta.org/go-hiking/hikes/edgar-rock
371,Longfellow Creek Legacy Trail,Puget Sound and Islands,Seattle-Tacoma Area,4.2,one-way,,,2.0,3,47.51999755,-122.3697138,5/15/21 0:00,4,0,1,0,0,0,1,0,0,0,1,0,0,1,0,1,No pass,https://www.wta.org/go-hiking/hikes/longfellow-creek
372,Elbow Peak,Snoqualmie Region,Salmon La Sac/Teanaway,11.0,roundtrip,3740.0,5710.0,2.38,8,47.29531667,-120.9649667,7/3/21 0:00,35,0,0,0,0,0,0,1,1,1,0,0,0,0,0,0,Discover Pass,https://www.wta.org/go-hiking/hikes/elbow-peak
373,Yellow Hill,Snoqualmie Region,Salmon La Sac/Teanaway,7.4,roundtrip,2827.0,5527.0,2.5,8,47.29553083,-120.9641075,8/31/21 0:00,50,0,0,0,0,0,0,1,1,0,0,0,0,0,0,0,Discover Pass,https://www.wta.org/go-hiking/hikes/yellow-hill
374,Klonaqua Lakes,Central Cascades,Leavenworth Area,10.0,one-way,2700.0,5200.0,3.0,5,47.61240018,-120.9499038,8/2/21 0:00,29,0,1,1,1,1,0,0,1,0,1,0,1,1,0,0,Northwest Forest Pass,https://www.wta.org/go-hiking/hikes/klonaqua-lakes
375,Snowall Cradle Lake,Central Cascades,Leavenworth Area,9.1,one-way,2700.0,6100.0,3.0,4,,,7/19/21 0:00,22,0,1,1,0,0,0,0,0,0,0,1,0,1,0,0,Northwest Forest Pass,https://www.wta.org/go-hiking/hikes/snowall-cradle-lake
376,French Creek,Central Cascades,Leavenworth Area,14.4,one-way,3200.0,6100.0,0.0,0,47.6294,-120.9653,8/2/21 0:00,41,0,1,0,0,0,0,0,1,0,1,1,0,1,0,0,Northwest Forest Pass,https://www.wta.org/go-hiking/hikes/french-creek-2
377,Kraus Ridge,South Cascades,Mount St. Helens,6.2,roundtrip,1570.0,2370.0,2.0,4,46.464933,-121.897383,8/6/19 0:00,4,0,0,0,0,1,1,0,0,0,1,1,0,0,1,1,Northwest Forest Pass,https://www.wta.org/go-hiking/hikes/kraus-ridge
378,South Creek,North Cascades,Methow/Sawtooth,,,,,2.67,3,,,5/22/21 0:00,20,0,0,0,0,0,0,0,0,0,0,0,0,0,0,0,,https://www.wta.org/go-hiking/hikes/south-creek
379,Company Creek,Central Cascades,Entiat Mountains/Lake Chelan,11.0,one-way,5400.0,6600.0,2.75,4,48.35222796,-120.7294035,7/24/20 0:00,5,0,1,0,0,0,0,0,1,1,0,1,0,0,0,0,No pass,https://www.wta.org/go-hiking/hikes/company-creek
380,Downey Creek,North Cascades,Mountain Loop Highway,13.2,roundtrip,1280.0,2400.0,2.75,8,48.25953333,-121.2229333,3/3/21 0:00,82,0,1,0,0,1,0,0,0,0,0,0,1,0,0,0,Northwest Forest Pass,https://www.wta.org/go-hiking/hikes/downey-creek
381,Sulphur Mountain,North Cascades,Mountain Loop Highway,10.0,roundtrip,4200.0,6000.0,3.4,5,48.244667,-121.188833,3/3/21 0:00,59,0,0,0,0,1,0,1,1,1,0,0,0,0,0,0,Northwest Forest Pass,https://www.wta.org/go-hiking/hikes/sulphur-mountain
382,Sulphur Creek,North Cascades,Mountain Loop Highway,3.6,roundtrip,900.0,2250.0,3.57,7,48.24983333,-121.1936167,9/6/20 0:00,37,0,1,0,0,1,0,0,0,0,0,0,0,0,0,0,,https://www.wta.org/go-hiking/hikes/sulphur-creek
383,Interlaken Park,Puget Sound and Islands,Seattle-Tacoma Area,1.6,roundtrip,200.0,325.0,3.5,4,47.63567439,-122.3038073,8/30/20 0:00,7,0,0,0,0,0,1,1,1,0,0,0,0,1,0,1,No pass,https://www.wta.org/go-hiking/hikes/interlaken-park
384,Mouth of the Tucannon,Eastern Washington,Palouse and Blue Mountains,2.6,roundtrip,80.0,580.0,2.33,3,46.54112989,-118.1585008,5/25/20 0:00,4,0,1,0,0,0,0,0,0,0,1,0,0,1,0,0,No pass,https://www.wta.org/go-hiking/hikes/mouth-of-the-tucannon
385,Cady Creek,Central Cascades,Stevens Pass - East,5.2,roundtrip,1300.0,4300.0,2.8,5,47.85861228,-120.9636784,10/1/21 0:00,45,0,0,0,0,0,0,0,1,0,0,1,0,1,0,1,Northwest Forest Pass,https://www.wta.org/go-hiking/hikes/cady-creek
386,Two Dollar Trail,Puget Sound and Islands,Bellingham Area,3.4,roundtrip,550.0,1100.0,4.5,4,48.67522,-122.4833,8/3/21 0:00,51,0,0,1,1,1,1,0,0,0,0,0,0,1,0,1,Discover Pass,https://www.wta.org/go-hiking/hikes/two-dollar-trail
387,Little Mountain Park - Darvill Loop,Puget Sound and Islands,Bellingham Area,4.4,roundtrip,860.0,934.0,3.0,3,48.38474257,-122.3095448,9/19/21 0:00,39,0,0,0,0,0,1,0,1,1,1,0,0,1,0,1,No pass,https://www.wta.org/go-hiking/hikes/little-mountain-park-darvill-trail
388,Little Mountain Park - Up Quick,Puget Sound and Islands,Bellingham Area,0.2,one-way,241.0,,2.33,3,48.38877894,-122.3028939,5/8/21 0:00,15,0,0,0,0,0,0,0,0,0,0,0,0,1,0,1,No pass,https://www.wta.org/go-hiking/hikes/little-mountain-park-up-quick
389,Blackbird Island - Waterfront Park,Central Cascades,Leavenworth Area,2.0,roundtrip,100.0,1100.0,5.0,2,47.59391689,-120.6626621,5/8/21 0:00,17,0,1,0,0,0,0,0,0,0,0,0,0,1,0,1,No pass,https://www.wta.org/go-hiking/hikes/blackbird-island-waterfront-park
390,Moss Lake,Puget Sound and Islands,Seattle-Tacoma Area,2.5,roundtrip,,,3.0,4,47.6928142,-121.8503537,7/30/21 0:00,47,0,0,1,0,0,0,0,0,0,0,0,0,1,0,1,No pass,https://www.wta.org/go-hiking/hikes/moss-lake
391,Coyote Wall - Moab/Maui Loop,Southwest Washington,Columbia River Gorge - WA,3.8,roundtrip,850.0,900.0,4.0,2,45.6993461,-121.4148305,4/18/21 0:00,32,0,1,0,0,0,0,1,0,0,0,0,0,1,0,1,No pass,https://www.wta.org/go-hiking/hikes/maui-falls-co5
392,Lemah Meadow,Snoqualmie Region,Salmon La Sac/Teanaway,1.0,one-way,200.0,3250.0,3.0,4,47.462291,-121.2809809,10/2/21 0:00,19,0,1,0,0,0,0,1,1,0,0,0,0,1,0,0,Northwest Forest Pass,https://www.wta.org/go-hiking/hikes/lemah-meadow
393,Goat Creek,Mount Rainier Area,Chinook Pass - Hwy 410,9.8,roundtrip,3400.0,6473.0,4.0,1,46.91691229,-121.2336856,7/30/21 0:00,24,0,1,1,0,0,0,0,0,1,0,1,1,1,0,0,Northwest Forest Pass,https://www.wta.org/go-hiking/hikes/goat-creek
394,Bainbridge Island Japanese American Exclusion Memorial,Puget Sound and Islands,Seattle-Tacoma Area,,,,,4.0,4,47.61540598,-122.5102281,4/16/21 0:00,3,0,0,0,0,1,0,0,0,0,0,0,0,0,0,0,No pass,https://www.wta.org/go-hiking/hikes/bainbridge-island-japanese-american-exclusion-memorial
395,Toutle Trail - Kalama Horse Camp to Red Rock Pass,South Cascades,Mount St. Helens,4.8,one-way,1300.0,3280.0,0.0,0,46.14294982,-122.3244327,10/31/20 0:00,5,0,1,1,0,1,0,0,0,0,0,1,0,1,0,0,Northwest Forest Pass,https://www.wta.org/go-hiking/hikes/toutle-trail-kalama-horse-camp-to-red-rock-pass
396,Kalaloch - Browns Point,Olympic Peninsula,Pacific Coast,4.0,roundtrip,25.0,25.0,3.88,8,47.61285,-124.3761667,8/14/21 0:00,52,1,0,0,0,0,0,0,0,0,0,0,0,1,0,1,No pass,https://www.wta.org/go-hiking/hikes/kalaloch-browns-point
397,Blanchard Hill - Alternate Incline Trail,Puget Sound and Islands,Bellingham Area,4.2,roundtrip,1000.0,1890.0,5.0,1,48.61716526,-122.3855495,10/18/21 0:00,28,0,0,0,0,0,0,0,1,0,0,0,0,1,0,1,Discover Pass,https://www.wta.org/go-hiking/hikes/incline-alternate-blanchard-hill
398,Goat Mountain and Deadman's Lake,South Cascades,Mount St. Helens,11.2,roundtrip,2400.0,5025.0,3.82,11,46.356333,-122.070033,9/5/21 0:00,69,0,0,1,0,0,0,1,1,1,0,0,0,0,0,0,Northwest Forest Pass,https://www.wta.org/go-hiking/hikes/goat-mountain-1
399,Fishtrap Lake - Scroggie Loop,Eastern Washington,Spokane Area/Coeur d'Alene,3.0,roundtrip,200.0,2260.0,2.5,4,47.33346041,-117.777729,10/5/19 0:00,9,0,0,0,0,0,0,1,0,0,1,0,0,1,0,1,No pass,https://www.wta.org/go-hiking/hikes/fishtrap-lake-scroggie-loop
400,Fallsview Canyon (Falls View),Olympic Peninsula,Hood Canal,1.5,roundtrip,300.0,400.0,3.43,7,47.78955,-122.9282833,8/27/21 0:00,72,0,1,0,1,0,1,0,0,0,1,0,0,1,0,1,No pass,https://www.wta.org/go-hiking/hikes/fallsview-canyon-1
401,Squire Creek Pass via Eight-mile Trail,North Cascades,Mountain Loop Highway,5.4,roundtrip,2350.0,4107.0,4.17,6,48.1573474,-121.6092789,10/16/21 0:00,126,0,0,0,0,1,0,1,1,0,0,1,0,1,0,0,Northwest Forest Pass,https://www.wta.org/go-hiking/hikes/eight-mile-squire-creek-pass
402,Deception Pass,Central Cascades,Stevens Pass - West,28.0,roundtrip,1100.0,4500.0,3.44,9,47.54432242,-121.0973167,9/5/21 0:00,91,0,1,1,0,0,1,0,1,0,0,1,0,1,0,0,Northwest Forest Pass,https://www.wta.org/go-hiking/hikes/deception-pass
403,Deep Lake,South Cascades,Mount Adams Area,5.0,roundtrip,900.0,5100.0,3.0,5,46.04797783,-121.7548496,8/23/21 0:00,11,0,0,1,0,1,0,0,1,0,0,1,1,1,0,1,Northwest Forest Pass,https://www.wta.org/go-hiking/hikes/deep-lake-2
404,CCC Road: Lower Section,Snoqualmie Region,North Bend Area,8.0,roundtrip,550.0,1650.0,4.0,3,47.48644,-121.7103195,7/24/21 0:00,36,0,0,0,0,0,0,0,0,0,0,0,0,0,0,0,Discover Pass,https://www.wta.org/go-hiking/hikes/ccc-road-lower-trailhead
405,Catherine Creek - Natural Arch,Southwest Washington,Columbia River Gorge - WA,2.1,roundtrip,250.0,500.0,4.0,1,45.71085432,-121.3612461,10/4/21 0:00,30,0,1,0,0,0,1,1,0,0,0,0,0,1,0,1,No pass,https://www.wta.org/go-hiking/hikes/catherine-creek-natural-arch
406,Cedar Downs,Puget Sound and Islands,Seattle-Tacoma Area,4.0,roundtrip,,,4.17,6,47.373867,-122.055672,2/6/21 0:00,22,0,0,0,0,1,1,0,0,0,1,0,0,1,0,1,No pass,https://www.wta.org/go-hiking/hikes/cedar-downs
407,Bird Mountain Loop,South Cascades,Mount Adams Area,10.25,roundtrip,1875.0,5230.0,3.11,9,46.0471,-121.75615,9/6/19 0:00,26,0,0,1,0,0,0,0,1,1,0,0,1,1,0,0,Northwest Forest Pass,https://www.wta.org/go-hiking/hikes/bird-mountain-loop
408,Augspurger Trail,Southwest Washington,Columbia River Gorge - WA,15.5,roundtrip,4400.0,3000.0,2.75,4,45.6991229,-121.7062141,5/17/21 0:00,24,0,1,0,0,0,0,1,1,0,0,0,0,1,0,0,No pass,https://www.wta.org/go-hiking/hikes/augspurger-trail
409,Barnes Creek,Olympic Peninsula,Northern Coast,10.0,roundtrip,3300.0,5090.0,3.14,7,48.0578167,-123.7884333,8/5/21 0:00,45,0,1,0,1,1,0,0,0,0,0,0,0,0,1,0,National Park Pass,https://www.wta.org/go-hiking/hikes/barnes-creek
410,Angry Mountain,South Cascades,,16.8,roundtrip,3409.0,6049.0,3.25,8,46.51840318,-121.5943945,9/16/21 0:00,19,0,0,0,0,0,0,1,1,1,0,1,0,1,0,0,No pass,https://www.wta.org/go-hiking/hikes/angry-mountain
411,Port Gamble Forest - Beaver Pond Trail,Olympic Peninsula,Kitsap Peninsula,2.0,roundtrip,,,3.0,2,47.84022497,-122.5876647,9/18/21 0:00,13,0,0,1,0,0,0,0,0,0,1,0,0,1,0,1,No pass,https://www.wta.org/go-hiking/hikes/port-gamble-forest-beaver-pond-trail
412,Big Rock Trail,Puget Sound and Islands,Seattle-Tacoma Area,1.25,roundtrip,,,0.0,0,47.60024781,-122.0480432,8/26/21 0:00,6,0,0,0,0,0,0,1,0,0,0,0,0,1,0,1,No pass,https://www.wta.org/go-hiking/hikes/big-rock-trail
413,Dishman Hills Conservation Area - Flying L Trail,Eastern Washington,Spokane Area/Coeur d'Alene,2.2,one-way,660.0,2788.0,0.0,0,47.6193623,-117.2736225,11/2/21 0:00,4,0,0,0,0,0,1,1,0,0,1,0,0,1,0,1,No pass,https://www.wta.org/go-hiking/hikes/dishman-hills-conservation-area-philips-creek-flying-l-trail
414,Dosewallips State Park - Maple Valley Loop,Olympic Peninsula,Hood Canal,1.5,roundtrip,,,4.0,1,47.69048406,-122.9052393,7/22/21 0:00,44,0,0,0,0,1,1,0,0,0,1,0,0,1,0,1,Discover Pass,https://www.wta.org/go-hiking/hikes/dosewallips-state-park-maple-valley-loop
415,Whittaker Wilderness Peak,Issaquah Alps,Cougar Mountain,3.0,roundtrip,1228.0,1598.0,2.2,5,47.52731865,-122.0645079,9/25/21 0:00,17,0,0,0,0,0,0,0,1,1,0,0,0,0,0,0,No pass,https://www.wta.org/go-hiking/hikes/whittaker-wilderness-peak
416,Tubal Cain Mine,Olympic Peninsula,Hood Canal,7.2,roundtrip,1600.0,4600.0,3.38,8,47.88607504,-123.0913353,10/30/21 0:00,181,0,1,0,0,1,0,0,0,0,0,0,1,1,0,0,Northwest Forest Pass,https://www.wta.org/go-hiking/hikes/tull-canyon
417,Tiger Mountain Trail North,Issaquah Alps,Tiger Mountain,15.5,roundtrip,2400.0,2500.0,2.75,8,47.52965,-121.9957,11/3/21 0:00,92,0,0,0,0,0,1,1,0,0,1,0,0,1,0,0,Discover Pass,https://www.wta.org/go-hiking/hikes/tiger-mountain-trail-north
418,Tatoosh Lookout,South Cascades,White Pass/Cowlitz River Valley,10.4,roundtrip,4100.0,6400.0,3.67,6,46.71314935,-121.7158556,9/21/21 0:00,75,0,0,0,0,1,0,1,1,1,0,1,0,1,0,0,No pass,https://www.wta.org/go-hiking/hikes/tatoosh-lookout
419,Tatoosh Ridge,South Cascades,White Pass/Cowlitz River Valley,6.2,roundtrip,2900.0,5775.0,3.73,11,46.71313464,-121.7159843,9/21/21 0:00,122,0,0,1,0,1,0,1,1,1,0,1,0,1,0,0,No pass,https://www.wta.org/go-hiking/hikes/tatoosh
420,Waptus Lake,Snoqualmie Region,Salmon La Sac/Teanaway,,,900.0,3100.0,4.0,4,47.3837308,-121.1001429,9/12/21 0:00,48,0,0,0,0,0,0,0,0,0,0,0,0,0,0,0,,https://www.wta.org/go-hiking/hikes/waptus-lake
421,Mystery Bay State Park,Olympic Peninsula,Pacific Coast,,,,,0.0,0,,,1/16/15 0:00,1,0,0,0,0,0,0,0,0,0,0,0,0,0,0,0,,https://www.wta.org/go-hiking/hikes/mystery-bay-state-park
422,Surveyors Lake Snowshoe,Snoqualmie Region,Snoqualmie Pass,,,,,4.0,1,47.39069222,-121.3964238,3/8/21 0:00,4,0,0,0,0,0,0,0,0,0,0,0,0,0,0,0,,https://www.wta.org/go-hiking/hikes/surveyors-lake-snowshoe
423,Pebble Creek,Mount Rainier Area,SW - Longmire/Paradise,,,,,4.0,1,,,9/11/21 0:00,19,0,0,0,0,0,0,0,0,0,0,0,0,0,0,0,,https://www.wta.org/go-hiking/hikes/pebble-creek-hike
424,Old Miners Trail,Issaquah Alps,Cougar Mountain,,,,,0.0,0,,,1/26/21 0:00,5,0,0,0,0,0,0,0,0,0,0,0,0,0,0,0,,https://www.wta.org/go-hiking/hikes/old-miners-trail-c-11
425,Joyride,Issaquah Alps,Tiger Mountain,,,,,0.0,0,,,4/24/21 0:00,14,0,0,0,0,0,0,0,0,0,0,0,0,0,0,0,,https://www.wta.org/go-hiking/hikes/joyride
426,La Rush/Bear Lakes,North Cascades,North Cascades Highway - Hwy 20,,,,,0.0,0,48.50545964,-121.2796211,9/7/21 0:00,9,0,0,0,0,0,0,0,0,0,0,0,0,0,0,0,,https://www.wta.org/go-hiking/hikes/la-rush-bear-lakes
427,Bear Lake,South Cascades,Mount Adams Area,,,,,4.0,1,,,7/8/21 0:00,5,0,0,0,0,0,0,0,0,0,0,0,0,0,0,0,,https://www.wta.org/go-hiking/hikes/bear-lake-4
428,Silver Creek,Mount Rainier Area,Chinook Pass - Hwy 410,,,,,0.0,0,,,9/25/21 0:00,35,0,0,0,0,0,0,0,0,0,0,0,0,0,0,0,,https://www.wta.org/go-hiking/hikes/silver-creek
429,Round Butte,Eastern Washington,Palouse and Blue Mountains,,,,,0.0,0,,,7/20/19 0:00,2,0,0,0,0,0,0,0,0,0,0,0,0,0,0,0,,https://www.wta.org/go-hiking/hikes/round-butte
430,Olympic Adventure Route,Olympic Peninsula,Northern Coast,,,,,4.0,1,48.12183962,-123.7836993,7/9/21 0:00,6,0,0,0,0,0,0,0,0,0,0,0,0,0,0,0,,https://www.wta.org/go-hiking/hikes/olympic-adventure-route
431,Lakes Basin Loop,Eastern Washington,Palouse and Blue Mountains,,,,,3.0,1,45.2809586,-117.212776,9/6/19 0:00,3,0,0,0,0,0,0,0,0,0,0,0,0,0,0,0,,https://www.wta.org/go-hiking/hikes/lakes-basin-loop-eagle-cap-wilderness
432,Timothy Lake Loop,Southwest Washington,Columbia River Gorge - OR,,,,,0.0,0,,,8/5/14 0:00,1,0,0,0,0,0,0,0,0,0,0,0,0,0,0,0,,https://www.wta.org/go-hiking/hikes/timothy-lake-loop
433,UW Bothell-Cascadia Community College Wetlands,Puget Sound and Islands,Seattle-Tacoma Area,1.0,roundtrip,,,1.0,1,,,12/23/19 0:00,3,0,1,0,0,0,0,0,0,0,1,0,0,0,0,0,No pass,https://www.wta.org/go-hiking/hikes/uw-bothell-cascadia-community-college-wetlands
434,Oxbow Regional Park,Southwest Washington,Columbia River Gorge - WA,,,,,0.0,0,,,8/3/14 0:00,1,0,0,0,0,0,0,0,0,0,0,0,0,0,0,0,,https://www.wta.org/go-hiking/hikes/oxbow-regional-park
435,Sahale Peak,North Cascades,,,,,,0.0,0,48.48202502,-121.0804081,7/25/21 0:00,28,0,0,0,0,0,0,0,0,0,0,0,0,0,0,0,,https://www.wta.org/go-hiking/hikes/sahale-peak
436,Mount Leona,Eastern Washington,Okanogan Highlands/Kettle River Range,6.0,roundtrip,1500.0,6474.0,0.0,0,48.765367,-118.487967,7/2/17 0:00,3,0,0,0,0,0,0,0,0,0,0,0,0,0,0,0,,https://www.wta.org/go-hiking/hikes/mount-leona
437,Colchuck Peak,Central Cascades,Leavenworth Area,,,,,0.0,0,,,7/4/21 0:00,29,0,0,0,0,0,0,0,0,0,0,0,0,0,0,0,,https://www.wta.org/go-hiking/hikes/colchuck-peak
438,Stiletto Lake,North Cascades,Methow/Sawtooth,12.6,roundtrip,3200.0,6810.0,4.0,1,,,10/7/21 0:00,21,0,0,1,1,0,1,1,1,0,0,0,0,0,1,0,Northwest Forest Pass,https://www.wta.org/go-hiking/hikes/stiletto-lake
439,Fortune Peak via Esmeralda Basin (Esmerelda),Snoqualmie Region,Salmon La Sac/Teanaway,,,,,0.0,0,47.4291889,-120.9377177,7/18/21 0:00,28,0,0,0,0,0,0,0,0,0,0,0,0,0,0,0,Northwest Forest Pass,https://www.wta.org/go-hiking/hikes/fortune-peak-via-esmeralda-basin-esmerelda-1394
440,Razorback Mountain Snowshoe,North Cascades,North Cascades Highway - Hwy 20,,,,,0.0,0,,,5/1/13 0:00,1,0,0,0,0,0,0,0,0,0,0,0,0,0,0,0,,https://www.wta.org/go-hiking/hikes/razorback-mountain-snowshoe
441,Corax Peak,North Cascades,Methow/Sawtooth,,,,,0.0,0,,,8/13/11 0:00,1,0,0,0,0,0,0,0,0,0,0,0,0,0,0,0,,https://www.wta.org/go-hiking/hikes/corax-peak
442,Cabinet Peak,North Cascades,North Cascades Highway - Hwy 20,,,,,0.0,0,48.63867434,-120.8512656,5/7/16 0:00,2,0,0,0,0,0,0,0,0,1,0,0,0,0,0,0,,https://www.wta.org/go-hiking/hikes/cabinet-peak
443,Soda Springs,Mount Rainier Area,Chinook Pass - Hwy 410,,,,,0.0,0,,,7/3/21 0:00,6,0,0,0,0,0,0,0,0,0,0,0,0,0,0,0,,https://www.wta.org/go-hiking/hikes/soda-springs-trail-975
444,The Eaglet,North Cascades,Mountain Loop Highway,,,,,0.0,0,,,3/23/14 0:00,5,0,0,0,0,0,0,0,0,0,0,0,0,0,0,0,,https://www.wta.org/go-hiking/hikes/the-eaglet
445,Moss Lake Loop,Mount Rainier Area,Chinook Pass - Hwy 410,0.75,roundtrip,,2400.0,0.0,0,47.0351251,-121.5613549,5/16/21 0:00,14,0,0,1,0,1,0,0,0,0,0,0,0,0,0,1,Northwest Forest Pass,https://www.wta.org/go-hiking/hikes/moss-lake-loop
446,Blowdown Mountain Road,Snoqualmie Region,North Bend Area,,,,,1.5,4,47.53068999,-121.6927359,10/26/21 0:00,40,0,0,0,0,0,0,0,0,0,0,0,0,0,0,0,,https://www.wta.org/go-hiking/hikes/blowdown-mountain-road
447,Kangaroo Temple,North Cascades,North Cascades Highway - Hwy 20,,,,,2.0,1,48.51433012,-120.6424999,6/2/18 0:00,5,0,0,0,0,0,0,0,0,0,0,0,0,0,0,0,,https://www.wta.org/go-hiking/hikes/kangaroo-temple
448,Mutton Mountain,Mount Rainier Area,Chinook Pass - Hwy 410,,,,,0.0,0,47.001916,-121.519038,8/29/21 0:00,27,0,0,0,0,0,0,0,0,0,0,0,0,0,0,0,,https://www.wta.org/go-hiking/hikes/mutton-mountain
449,Cripple Creek Falls,Snoqualmie Region,Snoqualmie Pass,,,,,0.0,0,,,3/17/12 0:00,1,0,0,0,0,0,0,0,0,0,0,0,0,0,0,0,,https://www.wta.org/go-hiking/hikes/cripple-creek-falls
