,TITLE,REGION,SPECIFIC REGION,HIGHEST,lat,lon,COAST,RIVERS,LAKES,WATERFALLS,OLD GROWTH,FALL FOLIAGE,WILDFLOWERS/MEADOWS,MOUNTAIN VIEWS,SUMMITS,WILDLIFE,RIDGES,ESTABLISHED CAMPSITES,DIFFICULTY,LABEL
0,Sawtooth Ridge,Eastern Washington,Palouse and Blue Mountains,5500.0,46.06178361,-117.8441325,0,0,0,0,0,0,1,1,0,0,1,0,moderate,11
1,Rattlesnake Trail,Eastern Washington,Palouse and Blue Mountains,5700.0,46.20433914,-117.7058244,0,0,0,0,0,0,1,1,1,0,1,1,very strenuous,0
2,Oregon Butte,Eastern Washington,Palouse and Blue Mountains,6387.0,46.11833168,-117.7149653,0,0,0,0,0,0,1,1,1,1,1,1,moderately strenuous,0
3,Mount Misery,Eastern Washington,Palouse and Blue Mountains,6401.0,46.1182006,-117.7143596,0,0,0,0,0,0,1,1,1,1,1,1,strenuous,0
4,Dexter Ridge,Eastern Washington,Palouse and Blue Mountains,5500.0,46.02152219,-117.7900136,0,1,0,0,0,0,0,0,0,0,0,0,very strenuous,9
5,Middle Tie Trail,Eastern Washington,Palouse and Blue Mountains,5400.0,46.0949,-117.8469,0,0,0,0,0,0,0,0,0,0,0,0,moderate,9
6,Grizzly Bear Ridge - Wenaha River - Slick Ear Loop,Eastern Washington,Palouse and Blue Mountains,5400.0,46.06380388,-117.8028339,0,0,0,0,0,0,1,1,0,0,0,0,very strenuous,5
7,Crooked Creek,Eastern Washington,Palouse and Blue Mountains,5700.0,46.15376009,-117.6511393,0,1,0,0,1,0,1,1,0,1,0,1,very strenuous,1
8,Packer's Trail,Eastern Washington,Palouse and Blue Mountains,4800.0,46.02233135,-117.5465816,0,1,0,0,0,0,1,1,0,0,1,0,very strenuous,11
9,Middle Point Ridge,Eastern Washington,Palouse and Blue Mountains,5724.0,46.1359,-117.808667,0,0,0,0,0,0,0,1,0,1,1,0,very strenuous,11
10,Packers Trail - Mount Misery Loop,Eastern Washington,Palouse and Blue Mountains,6387.0,46.1538,-117.6511,0,0,0,0,0,0,1,1,0,1,1,1,very strenuous,0
11,Tucannon River Canyon,Eastern Washington,Palouse and Blue Mountains,3680.0,46.188583,-117.625317,0,1,0,0,0,0,0,0,0,1,0,0,moderately strenuous,13
12,Table Rock,Eastern Washington,Palouse and Blue Mountains,6250.0,46.03041856,-117.9112753,0,0,0,0,0,0,0,1,1,0,0,0,easy,6
13,Smooth Ridge,Eastern Washington,Palouse and Blue Mountains,6529.0,46.11291501,-117.7455482,0,1,0,0,0,0,0,1,0,0,1,0,very strenuous,11
14,Cathedral Rock,Snoqualmie Region,Salmon La Sac/Teanaway,5550.0,47.5434644,-121.0969905,0,0,1,0,1,1,1,1,1,1,1,1,strenuous,4
15,Big Creek Trail,Snoqualmie Region,Cle Elum Area,3700.0,47.1844,-121.1373,0,1,0,0,1,0,0,0,0,0,0,0,very strenuous,1
16,Taneum Lake,Snoqualmie Region,Cle Elum Area,5400.0,47.061798,-121.0306907,0,0,1,0,1,0,0,0,0,0,0,0,easy,12
17,Manastash Ridge,Central Washington,Yakima,6245.0,47.075206,-121.083096,0,0,0,0,0,0,1,1,1,1,1,0,very strenuous,4
18,Granite Creek,Snoqualmie Region,Cle Elum Area,4600.0,47.161729,-121.091218,0,1,0,0,0,0,1,1,0,0,0,0,strenuous,13
19,Manastash Lake,Central Washington,Yakima,5063.0,47.0248288,-120.9406422,0,0,1,0,0,1,1,0,0,1,0,1,strenuous,8
20,Taneum Ridge,Snoqualmie Region,Cle Elum Area,6080.0,47.1112943,-120.9359926,0,0,0,0,0,0,1,1,1,0,1,0,very strenuous,4
21,Angel's Rest-Devil's Rest Loop,Southwest Washington,Columbia River Gorge - OR,2308.0,45.56026303,-122.1725821,0,1,0,1,0,0,0,0,1,0,0,0,very strenuous,2
22,Siouxon Peak Loop,South Cascades,Dark Divide,4170.0,45.9429912,-122.1853816,0,1,0,1,0,0,0,0,1,0,0,0,very strenuous,2
23,Heather Lake Snowshoe,North Cascades,Mountain Loop Highway,2440.0,48.0829067,-121.7740047,0,0,1,1,1,0,0,1,0,0,0,0,moderately strenuous,2
24,Hamilton Buttes,South Cascades,Dark Divide,5722.0,46.39111667,-121.6179,0,0,0,0,0,0,0,1,0,0,0,0,moderate,5
25,French Creek,Southwest Washington,Lewis River Region,3800.0,46.27781667,-121.79425,0,1,0,0,0,0,0,0,0,1,0,0,moderate,13
26,Meadowdale Beach Park - Lunds Gulch,Puget Sound and Islands,Seattle-Tacoma Area,425.0,47.85583333,-122.3175167,1,1,0,0,0,0,0,1,0,0,0,0,easy,3
27,Mount Finlayson,Puget Sound and Islands,San Juan Islands,290.0,48.4637,-122.999117,1,0,0,0,0,0,1,0,1,1,0,0,moderate,3
28,Bessemer Mountain,Snoqualmie Region,North Bend Area,5028.0,47.51588333,-121.6134167,0,0,0,0,0,0,0,0,0,0,0,0,very strenuous,9
29,Red Mountain (Commonwealth Basin),Snoqualmie Region,Snoqualmie Pass,5890.0,47.4278288,-121.4134415,0,0,0,0,0,0,1,1,1,0,0,0,very strenuous,6
30,North Fork Bridge Creek,Central Cascades,Entiat Mountains/Lake Chelan,4099.0,48.461381,-120.839744,0,1,1,1,0,0,1,1,0,1,0,1,strenuous,10
31,Agnes Gorge,Central Cascades,Entiat Mountains/Lake Chelan,2000.0,48.38073333,-120.8402833,0,1,0,0,0,1,1,1,0,1,0,0,moderate,7
32,Upper Stehekin Valley Road Trail,Central Cascades,Entiat Mountains/Lake Chelan,2400.0,48.38072376,-120.8403095,0,1,0,1,1,1,1,1,0,0,0,1,very strenuous,10
33,Rainbow Falls Mist Trail,Central Cascades,Entiat Mountains/Lake Chelan,1200.0,48.34221266,-120.7012638,0,0,0,1,1,1,0,0,0,0,0,0,easy,2
34,Howard Lake,Central Cascades,Entiat Mountains/Lake Chelan,2180.0,48.38006667,-120.8375667,0,0,1,0,1,1,0,1,0,1,0,0,moderate,12
35,Goode Ridge,Central Cascades,Entiat Mountains/Lake Chelan,6600.0,48.43260241,-120.8810577,0,0,0,0,0,0,0,1,0,1,1,0,very strenuous,11
36,Stehekin River Trail,Central Cascades,Entiat Mountains/Lake Chelan,1200.0,48.34914777,-120.7223654,0,1,1,0,0,1,0,1,0,1,0,1,easy,8
37,Ancient Lakes,Central Washington,Potholes Region,1200.0,47.15186675,-119.9222913,0,0,1,1,0,0,1,0,0,1,0,1,moderately strenuous,2
38,Dingford Creek-Myrtle Lake,Snoqualmie Region,North Bend Area,3800.0,47.5172007,-121.4552307,0,1,1,0,1,0,1,1,0,0,0,1,very strenuous,8
39,Rocky Top and Cowiche Mountain,Central Washington,Yakima,2970.0,46.62777712,-120.6836531,0,0,0,0,0,0,1,1,0,1,1,0,very strenuous,11
40,Lake Stuart,Central Cascades,Leavenworth Area,5065.0,47.5277,-120.8209833,0,0,1,0,1,0,0,1,0,0,0,1,strenuous,8
41,Iron Bear - Teanaway Ridge,Central Cascades,Blewett Pass,5489.0,47.35572395,-120.7176232,0,0,0,0,0,0,1,1,0,0,1,0,strenuous,11
42,Spider Gap - Buck Creek Pass Loop,Central Cascades,Stevens Pass - East,7100.0,48.0673919,-120.8406278,0,0,1,0,0,1,1,1,0,1,1,1,very strenuous,8
43,Hidden Lake (Lake Wenatchee),Central Cascades,Stevens Pass - East,2320.0,47.82163333,-120.8063833,0,0,1,0,1,0,0,0,0,0,0,1,easy,8
44,Wildside Trail-De Leo Wall,Issaquah Alps,Cougar Mountain,1122.0,47.53483333,-122.1288,0,0,0,0,0,0,1,1,0,1,0,0,moderate,5
45,Yakima Greenway,Central Washington,Yakima,1130.0,46.62495492,-120.5322397,0,1,1,0,0,1,0,1,0,1,0,0,easy,13
46,Windy Pass,North Cascades,Pasayten,6900.0,48.73215,-120.6751167,0,0,0,0,0,0,1,1,0,0,1,0,moderately strenuous,11
47,Wolf Creek,Olympic Peninsula,Northern Coast,5100.0,47.97040481,-123.5036445,0,1,0,0,0,1,0,1,0,1,0,0,very strenuous,7
48,White Mountain via Kettle Crest Trail South,Eastern Washington,Okanogan Highlands/Kettle River Range,6921.0,48.60737639,-118.4781075,0,0,0,0,0,0,0,1,1,0,0,0,very strenuous,6
49,West Fork Buttermilk,North Cascades,Methow/Sawtooth,7480.0,48.31111497,-120.336771,0,1,0,0,0,1,0,1,0,0,0,1,very strenuous,11
50,Wild Horses Monument,Central Washington,Yakima,1300.0,46.9645655,-119.9642694,0,1,0,0,0,0,1,0,0,0,0,0,easy,13
51,West Fork Dosewallips River,Olympic Peninsula,Hood Canal,3600.0,47.7434265,-123.2032514,0,1,0,1,1,1,1,1,0,0,0,1,very strenuous,10
52,West Fork Pasayten River,North Cascades,Pasayten,7200.0,48.7337925,-120.6751729,0,1,0,0,0,0,1,1,0,0,1,1,very strenuous,11
53,West Fork Methow River,North Cascades,Methow/Sawtooth,4280.0,48.6515,-120.5623,0,1,0,0,0,0,1,0,0,1,0,0,very strenuous,13
54,Trout Creek,Central Cascades,Stevens Pass - West,1400.0,47.8757746,-121.4609644,0,1,0,1,0,1,0,0,0,1,0,0,moderate,2
55,Tunnel Creek,Central Cascades,Stevens Pass - West,4400.0,47.70942256,-121.1065382,0,0,1,1,0,0,1,0,0,0,0,0,moderate,2
56,Twin Lakes (Wenatchee),Central Cascades,Stevens Pass - East,2850.0,47.92053333,-120.8948833,0,1,1,0,1,0,0,1,0,0,0,1,moderately strenuous,8
57,Trout Creek,North Cascades,Pasayten,5420.0,48.69828333,-120.6367833,0,0,0,0,0,0,1,1,0,0,0,0,moderate,5
58,Triad Creek,North Cascades,Mountain Loop Highway,5807.0,48.13281372,-121.001721,0,1,0,0,1,0,1,0,0,0,0,0,very strenuous,1
59,Escure Ranch - Towell Falls,Central Washington,Potholes Region,1565.0,47.014267,-117.94355,0,0,0,1,0,0,1,0,0,1,0,0,moderate,2
60,Trap Pass,Central Cascades,Stevens Pass - West,5800.0,47.70931361,-121.1065596,0,0,1,1,0,0,1,1,0,0,1,0,very strenuous,10
61,Tenmile Falls,Central Cascades,Entiat Mountains/Lake Chelan,4600.0,48.199807,-120.7745483,0,0,0,1,0,0,1,1,0,1,0,0,moderately strenuous,2
62,Tomyhoi Lake,North Cascades,Mount Baker Area,5400.0,48.94353113,-121.6625118,0,0,1,0,0,0,1,1,0,1,1,0,strenuous,11
63,Top Lake,Central Cascades,Leavenworth Area,5200.0,47.88020372,-121.0791206,0,0,1,0,0,0,1,1,0,0,0,1,strenuous,8
64,Silver Forest - Emmons Vista,Mount Rainier Area,NE - Sunrise/White River,6400.0,46.91407334,-121.6418423,0,0,0,0,0,0,1,1,0,0,0,0,easy,5
65,Baker Lake - Maple Grove,North Cascades,Mount Baker Area,1000.0,48.64561313,-121.674614,0,0,1,0,0,0,0,0,0,0,0,1,moderate,8
66,Alpine Lookout,Central Cascades,Stevens Pass - East,6235.0,47.79226667,-120.79445,0,0,0,0,0,0,1,1,0,1,1,0,very strenuous,11
67,High Divide - Seven Lakes Basin Loop,Olympic Peninsula,Northern Coast,5120.0,47.9506422,-123.815197,0,1,1,0,0,0,0,1,0,1,0,1,very strenuous,8
68,Bridal Veil Falls,Central Cascades,Stevens Pass - West,1600.0,47.80919243,-121.5739748,0,0,0,1,0,0,0,1,0,0,0,0,moderate,2
69,Eightmile Lake,Central Cascades,Leavenworth Area,4650.0,47.53596667,-120.8139,0,1,1,0,1,0,1,1,0,0,0,0,moderately strenuous,1
70,Wilderness Peak Loop,Issaquah Alps,Cougar Mountain,1598.0,47.50931654,-122.0903778,0,0,0,1,1,1,1,0,1,1,1,0,moderate,10
71,Lundin Peak,Snoqualmie Region,Snoqualmie Pass,6057.0,47.428029,-121.413413,0,0,0,0,0,0,1,1,1,0,1,0,very strenuous,4
72,Columbia Mountain,Eastern Washington,Okanogan Highlands/Kettle River Range,6565.0,48.65928538,-118.8587826,0,0,0,0,0,0,1,1,1,0,0,0,strenuous,6
73,Lena Lake,Olympic Peninsula,Hood Canal,2000.0,47.59973333,-123.1511833,0,0,1,1,1,0,1,1,0,0,0,1,moderately strenuous,10
74,Nooksack Cirque,North Cascades,Mount Baker Area,2840.0,48.88988333,-121.6749167,0,0,0,0,1,0,0,1,0,0,0,0,moderately strenuous,5
75,Deer Park to Maiden Peak,Olympic Peninsula,Northern Coast,6200.0,47.94967675,-123.264753,0,0,0,0,0,1,1,1,1,1,1,1,strenuous,4
76,Cape Alava,Olympic Peninsula,Pacific Coast,350.0,48.15369715,-124.6687281,1,1,0,0,0,0,0,0,0,1,0,1,easy,3
77,Circle Peak,North Cascades,Mountain Loop Highway,5983.0,48.22338605,-121.3500881,0,0,0,0,0,0,1,1,1,0,1,0,very strenuous,4
78,Rampart Ridge - Rampart Lakes,Snoqualmie Region,Snoqualmie Pass,5100.0,47.3979629,-121.2843441,0,1,1,1,0,0,0,1,0,0,1,1,very strenuous,10
79,Owyhigh Lakes,Mount Rainier Area,NE - Sunrise/White River,5275.0,46.890517,-121.596783,0,0,1,0,1,0,1,1,0,1,0,1,strenuous,8
80,Mount Zion,Olympic Peninsula,Hood Canal,4274.0,47.9228,-123.0260667,0,0,0,0,0,0,0,0,0,0,0,0,moderately strenuous,9
81,"Stagman Ridge, Horseshoe Meadow, Lookingglass Lake",South Cascades,Mount Adams Area,6100.0,46.14005808,-121.5973878,0,0,0,0,1,0,1,1,0,1,1,1,very strenuous,8
82,Humpback Mountain,Snoqualmie Region,Snoqualmie Pass,5112.0,47.37841085,-121.5161877,0,0,0,0,0,0,0,1,1,0,1,0,moderately strenuous,4
83,Cable Line Trail,Issaquah Alps,Tiger Mountain,2522.0,47.52960425,-121.9843769,0,0,0,0,0,0,0,0,0,0,0,0,moderately strenuous,9
84,Thorp Mountain Lookout via Thorp Creek,Snoqualmie Region,Salmon La Sac/Teanaway,5884.0,47.37325953,-121.1582186,0,0,1,0,0,1,1,1,1,0,0,0,strenuous,6
85,Skyscraper Pass,Mount Rainier Area,NE - Sunrise/White River,7079.0,46.9146,-121.6423,0,0,0,0,0,0,0,1,0,0,1,0,strenuous,11
86,Wildwood Park,Puget Sound and Islands,Seattle-Tacoma Area,354.0,47.16970211,-122.2813511,0,0,0,1,0,1,0,0,0,0,0,0,easy,2
87,Kukutali Preserve,Puget Sound and Islands,Bellingham Area,230.0,48.42097114,-122.5529449,1,0,0,0,1,1,0,0,0,1,0,0,easy,3
88,Mount Aix,Mount Rainier Area,Chinook Pass - Hwy 410,7766.0,46.8139,-121.3055,0,0,0,0,0,0,0,1,1,0,1,0,very strenuous,4
89,Little Bald Mountain,Mount Rainier Area,Chinook Pass - Hwy 410,4602.0,46.98152656,-121.1205597,0,0,0,0,0,0,1,1,1,0,1,0,very strenuous,4
90,Rattlesnake Trail,Mount Rainier Area,Chinook Pass - Hwy 410,3000.0,46.79555923,-121.1009135,0,1,0,0,0,0,0,0,0,1,0,0,moderate,13
91,Burnt Mountain,South Cascades,White Pass/Cowlitz River Valley,6586.0,46.71515,-121.1660167,0,0,0,0,0,0,1,1,1,1,1,0,moderate,4
92,American Ridge,Mount Rainier Area,Chinook Pass - Hwy 410,6310.0,46.9695,-121.168,0,1,1,0,0,0,0,1,0,0,1,1,very strenuous,8
93,Bonaparte Trail,Eastern Washington,Okanogan Highlands/Kettle River Range,7250.0,48.812851,-119.123565,0,0,1,0,0,0,0,0,1,0,0,0,very strenuous,6
94,Little Quilcene River,Olympic Peninsula,Hood Canal,6200.0,47.88663792,-123.0418818,0,0,0,0,0,0,1,1,1,1,1,0,strenuous,4
95,Lake Angeles,Olympic Peninsula,Northern Coast,4196.0,48.03908333,-123.4319333,0,0,1,0,0,0,0,0,0,0,0,1,strenuous,8
96,Lily and Lizard Lake Loop,Puget Sound and Islands,Bellingham Area,2120.0,48.61699503,-122.3857856,0,0,1,1,1,0,1,1,0,1,1,1,moderately strenuous,10
97,Big Gulch,Puget Sound and Islands,Seattle-Tacoma Area,460.0,47.9150497,-122.2975571,0,0,0,0,0,1,1,0,0,1,0,0,easy,7
98,Spray Park,Mount Rainier Area,NW - Carbon River/Mowich,6500.0,46.9327,-121.8636167,0,0,0,1,1,0,1,1,0,1,0,0,strenuous,2
99,Mount Adams South Climb,South Cascades,Mount Adams Area,12276.0,46.13586399,-121.4976034,0,1,0,0,0,0,0,1,1,0,0,1,very strenuous,6
100,Little Mashel Falls -  Bud Blancher Trail,Mount Rainier Area,NW - Carbon River/Mowich,1100.0,46.864669,-122.25757,0,1,0,1,1,0,0,0,0,1,0,0,moderate,2
101,Teneriffe Falls,Snoqualmie Region,North Bend Area,2370.0,47.486866,-121.709682,0,0,0,1,0,0,1,1,0,0,0,0,moderately strenuous,2
102,Grand Valley - Cameron Creek Loop,Olympic Peninsula,Northern Coast,6628.0,47.9485227,-123.2591073,0,1,1,0,0,0,0,1,0,0,1,1,very strenuous,8
103,Mother Mountain Loop,Mount Rainier Area,NW - Carbon River/Mowich,6380.0,46.9327668,-121.8631679,0,1,1,1,0,0,1,1,0,0,1,1,very strenuous,10
104,Cameron Pass,Olympic Peninsula,Hood Canal,6418.0,47.9485227,-123.2591073,0,1,0,0,0,0,1,0,0,0,1,0,strenuous,11
105,Cameron Creek,Olympic Peninsula,Hood Canal,4210.0,47.91551871,-123.2481802,0,1,0,0,0,0,0,0,0,0,0,1,very strenuous,1
106,Three Forks,Olympic Peninsula,Northern Coast,5381.0,47.94902749,-123.2583618,0,1,0,0,0,0,0,1,0,0,0,1,very strenuous,1
107,Grand Valley Loop,Olympic Peninsula,Northern Coast,6450.0,47.91829785,-123.3822155,0,0,0,0,1,0,1,0,0,1,0,1,strenuous,8
108,Round Pass Trail,Mount Rainier Area,SW - Longmire/Paradise,3885.0,46.79500627,-121.8947268,0,0,0,0,0,0,0,1,0,0,0,0,easy,5
109,Frying Pan Loop,South Cascades,White Pass/Cowlitz River Valley,3261.0,46.70421813,-121.4806339,0,0,1,0,0,1,0,1,1,0,0,1,very strenuous,6
110,Crystal Lakes,Mount Rainier Area,NE - Sunrise/White River,5828.0,46.92273333,-121.5336167,0,0,1,0,1,0,1,1,0,1,0,1,strenuous,8
111,Jumbo Peak,South Cascades,Dark Divide,5801.0,46.33538333,-121.7433833,0,0,0,0,0,0,1,1,1,0,0,0,moderately strenuous,6
112,Jolly Mountain,Snoqualmie Region,Salmon La Sac/Teanaway,6440.0,47.4044,-121.099117,0,0,0,0,0,0,1,1,1,0,1,0,very strenuous,4
113,Japanese Gulch,Puget Sound and Islands,Seattle-Tacoma Area,363.0,47.94676382,-122.2920799,0,1,0,1,1,0,0,1,0,0,0,0,easy,2
114,Jumpoff Ridge,Central Cascades,Stevens Pass - West,2600.0,47.8537658,-121.5022057,0,0,0,0,0,1,0,1,0,0,1,0,strenuous,11
115,Johnson Creek - Medra Pass,Snoqualmie Region,Salmon La Sac/Teanaway,5420.0,47.3812,-120.885733,0,1,0,0,0,0,1,1,0,0,1,0,strenuous,11
116,June Lake Snowshoe,South Cascades,Mount St. Helens,3140.0,46.1352375,-122.1568904,0,1,1,1,1,0,0,1,0,0,0,0,moderate,2
117,Jug Lake,South Cascades,White Pass/Cowlitz River Valley,4480.0,46.72303333,-121.4366,0,0,1,0,0,0,0,0,0,0,0,1,moderately strenuous,8
118,Junction Lake,South Cascades,Mount Adams Area,4780.0,45.98114209,-121.7581594,0,0,1,0,1,0,1,0,0,0,0,1,moderate,8
119,Indian Racetrack,South Cascades,Mount Adams Area,5200.0,46.1298056,-121.8392125,0,0,1,0,0,0,1,1,0,0,0,0,moderate,12
120,Howson Creek,Snoqualmie Region,Salmon La Sac/Teanaway,5700.0,47.3514085,-121.1043602,0,0,0,0,0,0,1,1,1,0,1,0,very strenuous,4
121,Illahee Forest Preserve,Olympic Peninsula,Kitsap Peninsula,530.0,47.597645,-122.59798,0,0,0,0,0,1,0,0,0,1,0,0,easy,7
122,Hawkins Mountain,Snoqualmie Region,Salmon La Sac/Teanaway,7160.0,47.45383312,-121.0416985,0,0,1,0,0,0,1,1,1,0,0,0,very strenuous,6
123,Holden to Hart Lake,Central Cascades,Entiat Mountains/Lake Chelan,3982.0,48.199517,-120.779208,0,0,1,1,0,1,0,1,0,0,0,1,moderately strenuous,10
124,High Lakes Ramble,South Cascades,Mount Adams Area,4370.0,46.29296667,-121.5959833,0,1,1,0,0,0,1,1,0,1,0,0,moderately strenuous,12
125,Hibox Mountain,Snoqualmie Region,Snoqualmie Pass,6560.0,47.40076024,-121.2840414,0,0,0,0,0,0,1,1,1,0,0,0,very strenuous,6
126,Heart O' the Forest,Olympic Peninsula,Northern Coast,1900.0,48.03504439,-123.4245149,0,1,0,0,1,0,1,0,0,0,0,1,moderate,1
127,Henskin Lake,Mount Rainier Area,Chinook Pass - Hwy 410,5550.0,46.93690918,-121.4692318,0,0,1,0,0,0,1,0,0,0,0,0,moderately strenuous,12
128,Haney Meadow Loop Snowshoe,Central Cascades,Blewett Pass,5960.0,47.3348885,-120.580815,0,0,0,0,0,0,0,1,0,0,1,0,strenuous,11
129,Greenbank Farm,Puget Sound and Islands,Whidbey Island,300.0,48.11132827,-122.5756216,0,0,0,0,0,0,0,1,0,1,0,0,moderate,5
130,East Tiger,Issaquah Alps,Tiger Mountain,3004.0,47.50755266,-121.9582254,0,0,0,0,0,0,0,0,0,0,0,0,very strenuous,9
131,Silent Swamp Loop,Issaquah Alps,Tiger Mountain,1780.0,47.46831145,-121.9362044,0,0,0,0,0,1,1,1,0,1,0,0,moderately strenuous,7
132,Inside Passage,Issaquah Alps,Tiger Mountain,2150.0,47.46837457,-121.9363104,0,1,0,0,0,1,0,0,0,1,0,0,moderately strenuous,7
133,Freund Canyon,Central Cascades,Leavenworth Area,3000.0,47.62858248,-120.6558037,0,0,0,0,0,0,0,1,0,0,0,0,strenuous,5
134,Esmeralda Peak Loop,Snoqualmie Region,Salmon La Sac/Teanaway,6000.0,47.44318219,-120.9399033,0,1,0,0,0,0,1,1,0,0,1,0,very strenuous,11
135,Easy Pass,North Cascades,North Cascades Highway - Hwy 20,6500.0,48.58791667,-120.8028667,0,0,0,0,0,1,1,1,0,0,1,0,strenuous,11
136,Burroughs Mountain,Mount Rainier Area,NE - Sunrise/White River,7828.0,46.91461667,-121.6423333,0,0,0,0,0,1,1,1,1,1,1,0,very strenuous,4
137,Cooney Lake,North Cascades,Methow/Sawtooth,7260.0,48.22177223,-120.2668674,0,0,1,0,0,1,1,1,0,0,0,0,very strenuous,12
138,Crescent Beach Preserve,Puget Sound and Islands,San Juan Islands,60.0,48.69595,-122.891567,1,0,0,0,0,1,0,0,0,1,0,0,easy,3
139,Boulder Creek,Central Cascades,Leavenworth Area,6310.0,48.00115,-120.9634,0,1,0,0,1,0,1,1,0,1,1,0,very strenuous,11
140,Duncan Hill,Central Cascades,Entiat Mountains/Lake Chelan,7819.0,48.01723584,-120.5894136,0,0,0,0,0,0,1,1,1,1,1,0,very strenuous,4
141,North Fork Entiat River,Central Cascades,Entiat Mountains/Lake Chelan,7150.0,48.01121432,-120.5717969,0,1,1,0,0,1,1,1,0,1,0,1,very strenuous,8
142,Tungsten,North Cascades,Pasayten,6800.0,48.82364948,-120.0188541,0,0,0,0,0,0,1,1,0,0,1,0,very strenuous,11
143,Fern Lake,Central Cascades,Entiat Mountains/Lake Chelan,6950.0,48.01119997,-120.5718881,0,1,1,0,0,0,1,1,0,1,0,0,very strenuous,12
144,Miners Ridge (Entiat),Central Cascades,Entiat Mountains/Lake Chelan,5750.0,47.80016667,-120.57235,0,0,0,0,0,0,0,1,0,0,1,0,moderate,11
145,Beacon Rock State Park - Hadley Trail,Southwest Washington,Columbia River Gorge - WA,750.0,45.62769429,-122.0234513,0,0,0,0,0,0,1,1,0,0,0,0,easy,5
146,Myrtle Falls,Mount Rainier Area,SW - Longmire/Paradise,5600.0,46.78612695,-121.7359132,0,0,0,1,0,0,1,1,0,1,0,0,easy,2
147,Crestwoods Park Trail,Puget Sound and Islands,Seattle-Tacoma Area,235.0,47.69313941,-122.1972831,0,0,0,0,0,0,0,0,0,0,0,0,easy,9
148,Capitol State Forest - Waddell Basin West,Olympic Peninsula,Olympia,1035.0,46.93909815,-123.077538,0,0,0,0,0,0,0,0,0,0,0,0,very strenuous,9
149,Illahee Lake Trail,Puget Sound and Islands,Seattle-Tacoma Area,370.0,47.61672307,-122.025404,0,0,1,0,0,0,0,0,0,0,0,0,easy,12
150,Lyre Conservation Area,Olympic Peninsula,Northern Coast,180.0,48.14730939,-123.8235408,1,0,0,0,0,0,0,0,0,1,0,0,easy,3
151,Sunset Hill Park,Puget Sound and Islands,Seattle-Tacoma Area,290.0,47.68319501,-122.400527,0,0,0,0,0,0,0,1,0,0,0,0,easy,5
152,Nute's Pond Park,Puget Sound and Islands,Seattle-Tacoma Area,280.0,47.58172576,-122.5066566,0,0,1,0,0,0,0,0,0,0,0,0,easy,12
153,Moments in Time Interpretive Trail,Olympic Peninsula,Northern Coast,600.0,48.057893,-123.788611,0,0,1,0,1,0,1,1,0,1,0,0,easy,12
154,Diablo Lake,North Cascades,North Cascades Highway - Hwy 20,1950.0,48.7205841,-121.1216068,0,0,1,0,0,0,0,1,0,0,0,0,moderately strenuous,12
155,White River,Central Cascades,Stevens Pass - East,2507.0,47.96273849,-120.9449988,0,1,0,0,1,0,0,1,0,1,0,0,moderately strenuous,1
156,Jarrell Cove State Park - Harstine Island,Olympic Peninsula,Kitsap Peninsula,175.0,47.2303176,-122.8835855,1,1,0,0,1,0,0,0,0,0,0,0,easy,3
157,Bayshore Preserve,Olympic Peninsula,Olympia,40.0,47.248556,-123.044222,1,0,0,0,0,0,0,0,0,1,0,0,easy,3
158,Galbraith Mountain,Puget Sound and Islands,Bellingham Area,1785.0,48.74400734,-122.4263084,0,0,0,0,0,0,0,1,0,0,0,0,very strenuous,5
159,Ludlow Falls Interpretive Trail,Olympic Peninsula,Hood Canal,100.0,47.91949144,-122.7065563,0,0,1,1,0,0,0,0,0,0,0,0,easy,2
160,Blue Lake Creek,South Cascades,Dark Divide,4000.0,46.41018,-121.73369,0,0,1,1,0,0,0,0,0,0,0,1,moderately strenuous,10
161,Cold Creek Loop via Tinkham and Silver Peaks,Snoqualmie Region,Snoqualmie Pass,4500.0,47.366011,-121.4199016,0,0,1,0,0,1,1,1,0,0,1,1,very strenuous,8
162,North Fork Skykomish River,Central Cascades,Stevens Pass - West,4000.0,47.9279415,-121.2731497,0,1,0,0,1,0,1,1,1,0,1,1,moderately strenuous,11
163,Elk Mountain to Maiden Peak,Olympic Peninsula,Pacific Coast,6625.0,47.93445793,-123.320909,0,0,0,0,0,0,1,1,0,1,1,1,moderately strenuous,11
164,Glacier Basin,Mount Rainier Area,NE - Sunrise/White River,5900.0,46.90215,-121.6436833,0,1,1,0,0,0,1,1,0,1,0,1,moderately strenuous,8
165,Windy Peak Loop,North Cascades,Pasayten,8060.0,48.908329,-119.903878,0,0,0,0,0,0,0,0,1,1,0,0,very strenuous,6
166,Sand Point,Olympic Peninsula,Pacific Coast,100.0,48.15400492,-124.6689892,1,0,0,0,0,0,0,0,0,1,0,1,easy,3
167,Spider Meadow and Phelps Basin,Central Cascades,Stevens Pass - East,5400.0,48.08291667,-120.8349667,0,0,0,0,1,0,1,1,0,1,0,1,very strenuous,8
168,Huckleberry Creek,Mount Rainier Area,Chinook Pass - Hwy 410,6778.0,47.00928924,-121.6171074,0,1,0,0,1,0,0,1,0,0,1,0,very strenuous,11
169,North Fork Skokomish River,Olympic Peninsula,Hood Canal,4688.0,47.51569352,-123.3295155,0,1,0,0,0,0,0,1,0,0,1,1,very strenuous,8
170,Forest Lake,Mount Rainier Area,NE - Sunrise/White River,6920.0,46.91461667,-121.6423333,0,0,1,0,0,0,1,1,0,1,1,1,moderately strenuous,8
171,Pratt River Trail,Snoqualmie Region,North Bend Area,2240.0,47.53115449,-121.5869594,0,1,0,0,1,1,0,0,0,0,0,0,strenuous,1
172,High Lakes Loop,Mount Rainier Area,SW - Longmire/Paradise,5425.0,46.76809549,-121.7288217,0,0,1,0,0,1,1,1,0,0,1,0,moderate,11
173,West Elwha,Olympic Peninsula,Pacific Coast,650.0,48.03177536,-123.595899,0,1,0,0,0,0,1,0,0,1,0,0,moderate,13
174,Summerland - Panhandle Gap,Mount Rainier Area,NE - Sunrise/White River,6800.0,46.88836667,-121.6110333,0,0,1,1,1,1,1,1,0,1,1,1,very strenuous,10
175,Paddy-Go-Easy Pass,Snoqualmie Region,Salmon La Sac/Teanaway,6080.0,47.5329,-121.0825833,0,0,0,0,0,0,1,1,0,0,1,0,strenuous,11
176,Hope and Mig Lakes,Central Cascades,Stevens Pass - West,4650.0,47.7128,-121.1073167,0,0,1,0,0,0,0,0,0,0,0,0,moderately strenuous,12
177,Gold Mountain,Olympic Peninsula,Kitsap Peninsula,1687.0,47.5521027,-122.8276171,0,0,0,0,0,1,1,1,1,1,0,0,moderate,0
178,Indian Henry's Hunting Ground via Tahoma Creek,Mount Rainier Area,SW - Longmire/Paradise,5400.0,46.7500413,-121.8129923,0,0,1,0,0,0,1,1,0,1,1,0,very strenuous,11
179,Hidden Forest Trail,Issaquah Alps,Tiger Mountain,2340.0,47.49995171,-122.0217665,0,0,0,0,0,1,0,1,0,0,0,0,strenuous,7
180,Hobart - Middle Tiger Railroad Trail,Issaquah Alps,Tiger Mountain,2180.0,47.48081719,-121.9663176,0,0,0,0,0,1,1,1,0,1,0,0,strenuous,7
181,High School Trail,Issaquah Alps,Tiger Mountain,480.0,47.5192503,-122.0298375,0,0,0,0,0,1,1,0,0,1,0,0,easy,7
182,Golden Gate,Mount Rainier Area,SW - Longmire/Paradise,6400.0,46.78603333,-121.7349833,0,0,0,1,0,1,1,1,0,1,0,0,moderate,2
183,Fort Steilacoom Park,Puget Sound and Islands,Seattle-Tacoma Area,376.0,47.17741803,-122.5591689,0,0,1,0,0,0,1,1,0,0,0,0,easy,12
184,Tahoma Creek Suspension Bridge - Emerald Ridge Loop,Mount Rainier Area,SW - Longmire/Paradise,5600.0,46.8379564,-121.89704,0,0,0,0,0,0,0,1,0,0,0,0,very strenuous,5
185,Federation Forest State Park,Mount Rainier Area,Chinook Pass - Hwy 410,1800.0,47.15295296,-121.7005348,0,1,0,0,1,0,0,0,0,0,0,0,easy,1
186,Dumbbell Lake,South Cascades,White Pass/Cowlitz River Valley,5600.0,46.64505,-121.382367,0,1,1,0,1,1,1,1,0,1,0,1,very strenuous,8
187,Dirty Harry's Museum,Snoqualmie Region,Snoqualmie Pass,3100.0,47.4342752,-121.6326678,0,0,0,0,0,0,0,0,0,0,0,0,strenuous,9
188,Cramer Mountain Loop,South Cascades,White Pass/Cowlitz River Valley,6000.0,46.64473333,-121.3822667,0,0,1,0,0,1,1,0,0,1,0,0,very strenuous,12
189,Griffiths-Priday State Park - Copalis River Spit,Southwest Washington,Long Beach Area,25.0,47.114137,-124.177076,1,1,0,0,0,0,0,0,0,1,0,0,easy,3
190,Carter Falls,Mount Rainier Area,SW - Longmire/Paradise,3650.0,46.76620587,-121.792717,0,1,0,1,1,0,1,1,0,0,0,0,moderate,2
191,Capitol State Forest - Capitol Peak,Olympic Peninsula,Olympia,2659.0,46.9731078,-123.1380272,0,0,0,0,0,0,0,1,1,0,0,0,strenuous,6
192,Boulder Lake,Central Cascades,Stevens Pass - West,3700.0,47.9703119,-121.5560001,0,0,1,0,1,0,0,0,0,0,0,1,very strenuous,8
193,Bus Trail,Issaquah Alps,Tiger Mountain,500.0,47.5297428,-121.9961387,0,0,0,0,0,0,0,0,0,0,0,0,easy,9
194,Bootleg Trail,Issaquah Alps,Tiger Mountain,2200.0,47.5303687,-121.9436016,0,0,0,0,0,0,0,0,0,0,0,0,moderately strenuous,9
195,Blake Island State Park,Puget Sound and Islands,Seattle-Tacoma Area,190.0,47.54231774,-122.4829044,1,0,0,0,1,1,0,1,0,1,0,1,moderate,3
196,Island Crest Park,Puget Sound and Islands,Seattle-Tacoma Area,325.0,47.55145366,-122.2234771,0,0,0,0,1,1,1,0,0,1,0,0,easy,7
197,Herringbone Hill,North Cascades,Methow/Sawtooth,3152.0,48.46506313,-120.2612342,0,0,0,0,0,0,0,1,1,1,0,0,easy,6
198,Loch Katrine,Snoqualmie Region,North Bend Area,3000.0,47.64924805,-121.6457316,0,1,1,0,0,0,1,1,0,1,0,0,moderately strenuous,12
199,Trillium Community Forest,Puget Sound and Islands,Whidbey Island,260.0,48.05010133,-122.5678968,0,0,1,0,0,1,1,0,0,1,0,0,easy,7
200,Northway Trail,Mount Rainier Area,Chinook Pass - Hwy 410,6800.0,46.96153796,-121.4830184,0,0,0,0,0,0,1,1,1,0,0,0,very strenuous,6
201,Evergreen State College - Organic Farm Trail,Olympic Peninsula,Olympia,230.0,47.07081897,-122.9782803,0,0,0,0,0,1,1,0,0,1,0,0,easy,7
202,Colquhoun Peak,Mount Rainier Area,Chinook Pass - Hwy 410,5173.0,47.132167,-121.4598,0,0,0,0,0,0,0,0,1,0,0,0,easy,6
203,Whidbey Institute,Puget Sound and Islands,Whidbey Island,420.0,47.97806369,-122.4103281,0,0,1,0,1,0,1,0,0,1,0,0,moderate,1
204,Dandy Pass Road Snowshoe,Snoqualmie Region,Snoqualmie Pass,2840.0,47.30629384,-121.3170909,0,0,0,0,0,0,0,1,0,0,0,0,moderate,5
205,Ragged Ridge,Eastern Washington,Spokane Area/Coeur d'Alene,5300.0,47.90459717,-117.1029498,0,0,0,0,1,1,1,1,1,1,1,0,very strenuous,0
206,Jacobson Preserve,Central Washington,Wenatchee,1440.0,47.41131669,-120.352639,0,0,0,0,0,0,1,0,1,1,0,0,easy,0
207,Zig Zag Lake,South Cascades,Mount St. Helens,4000.0,45.84643333,-122.1111667,0,0,1,0,1,0,0,0,0,1,0,0,easy,1
208,Windy Ridge Trail,South Cascades,Mount St. Helens,4200.0,46.24995,-122.13615,0,0,0,0,0,0,1,1,0,0,1,0,easy,11
209,Windy Pass,Central Cascades,Leavenworth Area,7200.0,47.53596428,-120.8135819,0,0,1,0,0,1,0,1,0,0,1,1,very strenuous,8
210,Bertha May and Granite Lakes,South Cascades,White Pass/Cowlitz River Valley,4400.0,46.705,-121.9319,0,0,1,0,0,1,0,1,0,0,0,0,moderate,12
211,Mill Gulch Trail,Snoqualmie Region,Cle Elum Area,3600.0,47.25624327,-120.7095391,0,0,0,0,0,0,0,0,0,0,0,0,moderate,9
212,Llandover Woods Greenspace,Puget Sound and Islands,Seattle-Tacoma Area,170.0,47.73411376,-122.361926,0,0,0,0,0,1,0,0,0,0,0,0,easy,7
213,South Hill Bluff,Eastern Washington,Spokane Area/Coeur d'Alene,2340.0,47.628567,-117.429667,0,0,0,0,0,0,1,0,0,1,0,0,moderately strenuous,13
214,Pickhandle Gap Loop,Mount Rainier Area,Chinook Pass - Hwy 410,6200.0,46.93693116,-121.4692372,0,0,1,0,0,0,1,1,0,0,1,0,strenuous,11
215,Lacamas Park - Round Lake to Lower Falls,Southwest Washington,Vancouver Area,200.0,45.6039446,-122.4071275,0,0,1,1,0,0,0,0,0,0,0,0,easy,2
216,Sperry Peak,North Cascades,Mountain Loop Highway,6120.0,48.0249788,-121.4779115,0,0,1,0,0,0,0,1,1,0,1,0,very strenuous,4
217,Anacortes Community Forest Lands - Big Beaver Pond,Puget Sound and Islands,Whidbey Island,450.0,48.49158277,-122.6363462,0,0,1,0,0,0,0,0,0,1,0,0,easy,12
218,Windy Ridge and Plains of Abraham,South Cascades,Mount St. Helens,4850.0,46.248917,-122.13615,0,0,0,0,0,0,1,1,0,0,1,0,strenuous,11
219,Palisades Park,Eastern Washington,Spokane Area/Coeur d'Alene,2200.0,47.66715124,-117.4876468,0,0,0,0,0,1,1,1,0,1,0,0,moderate,0
220,Ape Caves,South Cascades,Mount St. Helens,2450.0,46.10831667,-122.21145,0,0,0,0,0,0,0,0,0,0,0,0,easy,9
221,Weowna Park,Puget Sound and Islands,Seattle-Tacoma Area,320.0,47.60354441,-122.112329,0,0,0,0,1,1,0,0,0,1,0,0,moderate,7
222,Albert Camp,North Cascades,Pasayten,7700.0,48.9069201,-119.8271961,0,0,0,0,0,0,1,0,1,1,1,0,very strenuous,4
223,Billy Goat Loop,North Cascades,Pasayten,7500.0,48.78854503,-120.3178024,0,0,1,0,0,1,1,1,1,1,1,1,very strenuous,4
224,Hoh River Trail to Blue Glacier,Olympic Peninsula,Pacific Coast,4300.0,47.8594905,-123.9343548,0,1,1,1,1,0,1,1,0,1,0,0,very strenuous,2
225,Elbow Peak,Snoqualmie Region,Salmon La Sac/Teanaway,5710.0,47.29531667,-120.9649667,0,0,0,0,0,0,1,1,1,0,0,0,very strenuous,6
226,Yellow Hill,Snoqualmie Region,Salmon La Sac/Teanaway,5527.0,47.29553083,-120.9641075,0,0,0,0,0,0,1,1,0,0,0,0,very strenuous,5
227,Klonaqua Lakes,Central Cascades,Leavenworth Area,5200.0,47.61240018,-120.9499038,0,1,1,1,1,0,0,1,0,1,0,1,very strenuous,10
228,French Creek,Central Cascades,Leavenworth Area,6100.0,47.6294,-120.9653,0,1,0,0,0,0,0,1,0,1,1,0,very strenuous,11
229,Kraus Ridge,South Cascades,Mount St. Helens,2370.0,46.464933,-121.897383,0,0,0,0,1,1,0,0,0,1,1,0,moderately strenuous,7
230,Company Creek,Central Cascades,Entiat Mountains/Lake Chelan,6600.0,48.35222796,-120.7294035,0,1,0,0,0,0,0,1,1,0,1,0,very strenuous,4
231,Downey Creek,North Cascades,Mountain Loop Highway,2400.0,48.25953333,-121.2229333,0,1,0,0,1,0,0,0,0,0,0,1,strenuous,1
232,Sulphur Mountain,North Cascades,Mountain Loop Highway,6000.0,48.244667,-121.188833,0,0,0,0,1,0,1,1,1,0,0,0,very strenuous,6
233,Sulphur Creek,North Cascades,Mountain Loop Highway,2250.0,48.24983333,-121.1936167,0,1,0,0,1,0,0,0,0,0,0,0,moderate,1
234,Interlaken Park,Puget Sound and Islands,Seattle-Tacoma Area,325.0,47.63567439,-122.3038073,0,0,0,0,0,1,1,1,0,0,0,0,easy,7
235,Mouth of the Tucannon,Eastern Washington,Palouse and Blue Mountains,580.0,46.54112989,-118.1585008,0,1,0,0,0,0,0,0,0,1,0,0,easy,13
236,Cady Creek,Central Cascades,Stevens Pass - East,4300.0,47.85861228,-120.9636784,0,0,0,0,0,0,0,1,0,0,1,0,moderately strenuous,11
237,Two Dollar Trail,Puget Sound and Islands,Bellingham Area,1100.0,48.67522,-122.4833,0,0,1,1,1,1,0,0,0,0,0,0,moderate,2
238,Little Mountain Park - Darvill Loop,Puget Sound and Islands,Bellingham Area,934.0,48.38474257,-122.3095448,0,0,0,0,0,1,0,1,1,1,0,0,moderate,0
239,Blackbird Island - Waterfront Park,Central Cascades,Leavenworth Area,1100.0,47.59391689,-120.6626621,0,1,0,0,0,0,0,0,0,0,0,0,easy,13
240,Coyote Wall - Moab/Maui Loop,Southwest Washington,Columbia River Gorge - WA,900.0,45.6993461,-121.4148305,0,1,0,0,0,0,1,0,0,0,0,0,moderate,13
241,Lemah Meadow,Snoqualmie Region,Salmon La Sac/Teanaway,3250.0,47.462291,-121.2809809,0,1,0,0,0,0,1,1,0,0,0,0,easy,13
242,Goat Creek,Mount Rainier Area,Chinook Pass - Hwy 410,6473.0,46.91691229,-121.2336856,0,1,1,0,0,0,0,0,1,0,1,1,very strenuous,8
243,Toutle Trail - Kalama Horse Camp to Red Rock Pass,South Cascades,Mount St. Helens,3280.0,46.14294982,-122.3244327,0,1,1,0,1,0,0,0,0,0,1,0,strenuous,1
244,Kalaloch - Browns Point,Olympic Peninsula,Pacific Coast,25.0,47.61285,-124.3761667,1,0,0,0,0,0,0,0,0,0,0,0,easy,3
245,Blanchard Hill - Alternate Incline Trail,Puget Sound and Islands,Bellingham Area,1890.0,48.61716526,-122.3855495,0,0,0,0,0,0,0,1,0,0,0,0,moderate,5
246,Goat Mountain and Deadman's Lake,South Cascades,Mount St. Helens,5025.0,46.356333,-122.070033,0,0,1,0,0,0,1,1,1,0,0,0,very strenuous,6
247,Fishtrap Lake - Scroggie Loop,Eastern Washington,Spokane Area/Coeur d'Alene,2260.0,47.33346041,-117.777729,0,0,0,0,0,0,1,0,0,1,0,0,easy,13
248,Fallsview Canyon (Falls View),Olympic Peninsula,Hood Canal,400.0,47.78955,-122.9282833,0,1,0,1,0,1,0,0,0,1,0,0,easy,2
249,Squire Creek Pass via Eight-mile Trail,North Cascades,Mountain Loop Highway,4107.0,48.1573474,-121.6092789,0,0,0,0,1,0,1,1,0,0,1,0,strenuous,11
250,Deception Pass,Central Cascades,Stevens Pass - West,4500.0,47.54432242,-121.0973167,0,1,1,0,0,1,0,1,0,0,1,0,very strenuous,11
251,Deep Lake,South Cascades,Mount Adams Area,5100.0,46.04797783,-121.7548496,0,0,1,0,1,0,0,1,0,0,1,1,moderate,8
252,CCC Road: Lower Section,Snoqualmie Region,North Bend Area,1650.0,47.48644,-121.7103195,0,0,0,0,0,0,0,0,0,0,0,0,moderate,9
253,Catherine Creek - Natural Arch,Southwest Washington,Columbia River Gorge - WA,500.0,45.71085432,-121.3612461,0,1,0,0,0,1,1,0,0,0,0,0,easy,7
254,Bird Mountain Loop,South Cascades,Mount Adams Area,5230.0,46.0471,-121.75615,0,0,1,0,0,0,0,1,1,0,0,1,strenuous,6
255,Augspurger Trail,Southwest Washington,Columbia River Gorge - WA,3000.0,45.6991229,-121.7062141,0,1,0,0,0,0,1,1,0,0,0,0,very strenuous,13
256,Barnes Creek,Olympic Peninsula,Northern Coast,5090.0,48.0578167,-123.7884333,0,1,0,1,1,0,0,0,0,0,0,0,very strenuous,2
257,Dishman Hills Conservation Area - Flying L Trail,Eastern Washington,Spokane Area/Coeur d'Alene,2788.0,47.6193623,-117.2736225,0,0,0,0,0,1,1,0,0,1,0,0,moderate,0
258,Whittaker Wilderness Peak,Issaquah Alps,Cougar Mountain,1598.0,47.52731865,-122.0645079,0,0,0,0,0,0,0,1,1,0,0,0,moderate,6
259,Tubal Cain Mine,Olympic Peninsula,Hood Canal,4600.0,47.88607504,-123.0913353,0,1,0,0,1,0,0,0,0,0,0,1,strenuous,1
260,Tiger Mountain Trail North,Issaquah Alps,Tiger Mountain,2500.0,47.52965,-121.9957,0,0,0,0,0,1,1,0,0,1,0,0,very strenuous,7
261,Tatoosh Lookout,South Cascades,White Pass/Cowlitz River Valley,6400.0,46.71314935,-121.7158556,0,0,0,0,1,0,1,1,1,0,1,0,very strenuous,4
262,Tatoosh Ridge,South Cascades,White Pass/Cowlitz River Valley,5775.0,46.71313464,-121.7159843,0,0,1,0,1,0,1,1,1,0,1,0,strenuous,4
263,Mount Leona,Eastern Washington,Okanogan Highlands/Kettle River Range,6474.0,48.765367,-118.487967,0,0,0,0,0,0,0,0,0,0,0,0,moderately strenuous,9
264,Lyman Lakes,Central Cascades,Entiat Mountains/Lake Chelan,5983.0,48.19841251,-120.7745934,0,0,1,1,1,0,1,1,0,1,1,1,very strenuous,10
265,Lake Julius and Loch Eileen,Central Cascades,Stevens Pass - East,5735.0,47.72828333,-120.8436667,0,0,1,1,0,1,1,0,0,0,0,0,very strenuous,2
266,Lower Mad River Valley,Central Cascades,Entiat Mountains/Lake Chelan,2000.0,47.75888333,-120.4271333,0,1,0,0,1,0,1,0,0,1,0,1,very strenuous,1
267,Lakeview Ranch,Central Washington,Potholes Region,1780.0,47.413833,-118.741233,0,0,1,0,0,0,0,0,0,1,0,0,moderate,12
268,Libby Lake,North Cascades,Methow/Sawtooth,7640.0,48.27593333,-120.2900333,0,0,1,0,0,1,0,1,0,0,1,0,very strenuous,11
269,Little Giant Pass,Central Cascades,Stevens Pass - East,6409.0,48.02583333,-120.8286,0,1,0,0,0,0,1,1,0,0,1,0,very strenuous,11
270,Lanham Lake,Central Cascades,Stevens Pass - East,4140.0,47.77163333,-121.0136333,0,0,1,0,0,0,0,1,0,0,0,0,moderate,12
271,Lenore Lake Caves,Central Washington,Grand Coulee,1300.0,47.51737324,-119.4937698,0,0,0,0,0,0,1,0,0,1,0,0,easy,13
272,Lake Elizabeth,Central Cascades,Stevens Pass - West,2890.0,47.70121419,-121.5182033,0,0,0,0,0,1,1,0,0,1,0,1,easy,7
273,Klahhane Ridge,Olympic Peninsula,Northern Coast,6050.0,47.98708333,-123.4608667,0,0,0,0,0,0,1,1,1,1,1,0,moderately strenuous,4
274,Lake Constance,Olympic Peninsula,Hood Canal,4800.0,47.729617,-123.141733,0,1,1,1,1,0,0,1,0,0,0,1,strenuous,10
275,Kettle Crest North,Eastern Washington,Okanogan Highlands/Kettle River Range,7135.0,48.60907894,-118.4844589,0,0,0,0,1,1,1,1,1,1,1,1,very strenuous,0
276,Foggy Dew Creek,North Cascades,Methow/Sawtooth,8050.0,48.17513,-120.26125,0,0,0,0,0,0,0,0,0,0,0,0,very strenuous,9
277,Chain Lakes Trail,Central Cascades,Stevens Pass - East,5700.0,47.74604833,-121.086574,0,0,1,0,0,0,0,1,0,0,1,1,strenuous,8
278,Smokey Bottom (West Lake Mills),Olympic Peninsula,Northern Coast,800.0,48.00191667,-123.6044333,0,1,0,0,1,1,0,1,0,1,0,0,moderate,7
279,Kettle Crest South,Eastern Washington,Okanogan Highlands/Kettle River Range,6500.0,48.501166,-118.4211588,0,0,0,0,0,0,1,1,0,0,0,0,moderate,5
280,Klapatche Park,Mount Rainier Area,NW - Carbon River/Mowich,6000.0,46.7354,-121.8566,0,1,1,0,0,0,1,1,0,1,0,1,very strenuous,8
281,Josephine Lake,Central Cascades,Stevens Pass - East,5150.0,47.74646667,-121.0865167,0,0,1,0,0,0,1,1,0,0,0,0,strenuous,12
282,Juniper Dunes Wilderness,Central Washington,Tri-Cities,1050.0,46.3245547,-119.0254257,0,0,0,0,1,0,1,0,0,1,0,0,moderate,13
283,Jefferson Ridge,Olympic Peninsula,Hood Canal,3832.0,47.57123333,-123.1315167,0,1,0,0,0,0,0,1,0,0,0,0,moderately strenuous,13
284,Horse Heaven Hills,Central Washington,Tri-Cities,1924.0,46.23907232,-119.4846835,0,0,0,0,0,0,1,0,0,0,1,0,moderately strenuous,11
285,Lake Ann (Rainy Pass),North Cascades,North Cascades Highway - Hwy 20,5500.0,48.5156197,-120.7361753,0,0,1,1,1,1,1,1,0,0,1,0,moderate,10
286,Harts Pass to Rainy Pass,North Cascades,North Cascades Highway - Hwy 20,6900.0,48.70223192,-120.6729527,0,1,1,0,1,0,1,1,0,1,1,1,very strenuous,8
287,Stehekin to Rainy Pass,North Cascades,North Cascades Highway - Hwy 20,4900.0,48.30925968,-120.6575337,0,1,1,0,1,1,0,1,0,1,1,1,very strenuous,8
288,Thunder Woods Nature Trail,North Cascades,North Cascades Highway - Hwy 20,1620.0,48.68521868,-121.0929383,0,0,1,0,1,0,0,1,0,0,0,0,easy,12
289,River Loop,North Cascades,North Cascades Highway - Hwy 20,480.0,48.6711,-121.2609,0,1,0,0,0,0,0,0,0,0,0,1,easy,1
290,Ross Dam Trail,North Cascades,North Cascades Highway - Hwy 20,2100.0,48.72777499,-121.0628128,0,1,1,0,1,0,1,0,0,0,0,0,easy,1
291,Park Creek Pass via Thunder Creek,North Cascades,North Cascades Highway - Hwy 20,6100.0,48.6925408,-121.0977693,0,1,0,1,1,0,1,1,0,1,1,1,very strenuous,10
292,Skagit River Loop Trail,North Cascades,North Cascades Highway - Hwy 20,597.0,48.66585,-121.26685,0,1,0,0,1,0,0,0,0,0,0,0,easy,1
293,Rockport State Park,North Cascades,North Cascades Highway - Hwy 20,750.0,48.4879855,-121.6141887,0,0,0,0,1,0,0,0,0,0,0,0,easy,1
294,Ruby Mountain,North Cascades,North Cascades Highway - Hwy 20,7408.0,48.71763951,-121.0741425,0,0,0,0,0,0,0,1,1,0,1,1,very strenuous,4
295,Sauk Mountain,North Cascades,North Cascades Highway - Hwy 20,5500.0,48.52128333,-121.60715,0,0,0,0,0,0,1,1,1,0,0,0,moderately strenuous,6
296,Sauk Lake,North Cascades,North Cascades Highway - Hwy 20,5200.0,48.52036412,-121.6178707,0,0,1,0,0,0,1,1,0,1,1,0,strenuous,11
297,Rainy Lake,North Cascades,North Cascades Highway - Hwy 20,4800.0,48.5149657,-120.7354966,0,0,1,1,0,1,0,1,0,0,0,0,easy,10
298,Rasar State Park,North Cascades,North Cascades Highway - Hwy 20,125.0,48.516737,-121.905881,0,1,0,0,1,0,0,1,0,1,0,1,easy,1
299,Pyramid Lake,North Cascades,North Cascades Highway - Hwy 20,2500.0,48.70983333,-121.1451667,0,0,1,0,1,0,0,0,0,1,0,0,moderately strenuous,12
300,Monogram Lake,North Cascades,North Cascades Highway - Hwy 20,5719.0,48.53698333,-121.2939833,0,0,1,0,0,0,1,1,1,0,1,0,very strenuous,4
301,Lookout Mountain Lookout,North Cascades,North Cascades Highway - Hwy 20,5719.0,48.5371864,-121.293843,0,0,0,0,0,0,1,1,1,0,0,0,very strenuous,6
302,Little Jack Mountain,North Cascades,North Cascades Highway - Hwy 20,5896.0,48.7055,-120.9608,0,0,0,0,0,0,0,0,0,0,0,0,very strenuous,9
303,Little Beaver Creek,North Cascades,North Cascades Highway - Hwy 20,5197.0,48.91606953,-121.0739708,0,1,1,0,1,0,1,1,0,1,1,1,very strenuous,8
304,Domke Lake,Central Cascades,Entiat Mountains/Lake Chelan,2200.0,48.1906968,-120.6278045,0,0,1,0,0,0,0,1,0,1,0,1,moderately strenuous,8
305,Devils Gulch,Central Cascades,Stevens Pass - East,2800.0,47.3126267,-120.4240034,0,0,0,0,1,0,0,0,0,1,0,0,moderately strenuous,1
306,Dodger Point,Olympic Peninsula,Northern Coast,5753.0,47.9609124,-123.5743783,0,0,0,0,0,0,0,1,1,0,0,1,very strenuous,6
307,Crater Lakes,North Cascades,Methow/Sawtooth,6980.0,48.220383,-120.26785,0,0,1,0,0,1,0,1,0,0,0,1,strenuous,8
308,Crowell Ridge,Eastern Washington,Selkirk Range,6880.0,48.878267,-117.24485,0,0,0,0,1,0,1,1,1,1,1,1,very strenuous,0
309,Columbia Plateau Trail - Amber Lake,Eastern Washington,Spokane Area/Coeur d'Alene,2300.0,47.3511886,-117.7106383,0,0,1,0,0,1,1,0,0,1,0,0,moderate,0
310,Copper Creek,Central Cascades,Entiat Mountains/Lake Chelan,5600.0,48.19883444,-120.7732522,0,0,0,0,0,0,1,1,0,0,0,0,moderately strenuous,5
311,Cascade Rock,Olympic Peninsula,Northern Coast,1825.0,48.027467,-123.58825,0,0,0,0,0,1,0,0,1,1,0,0,moderately strenuous,7
312,Chatter Creek,Central Cascades,Leavenworth Area,6400.0,47.6098,-120.892,0,1,0,0,0,0,0,1,0,0,1,1,very strenuous,8
313,Chamna Natural Preserve,Central Washington,Tri-Cities,350.0,46.25771305,-119.2865159,0,1,0,0,0,1,1,0,0,1,0,0,easy,7
314,Cat Basin Primitive,Olympic Peninsula,Northern Coast,5500.0,47.95601907,-123.8378906,0,0,1,0,0,1,1,1,0,1,1,0,strenuous,11
315,Cady Ridge,Central Cascades,Stevens Pass - East,5551.0,47.91825,-121.0873833,0,0,0,0,0,0,1,1,0,0,1,0,very strenuous,11
316,Boulder Lake (Olympics),Olympic Peninsula,Northern Coast,4300.0,47.9775078,-123.6860602,0,0,1,0,1,1,1,1,0,0,0,1,very strenuous,8
317,Boundary Trail - Pasayten,North Cascades,Pasayten,7800.0,48.8848396,-119.8666783,0,1,1,0,0,0,0,1,1,0,1,0,very strenuous,4
318,Billy Goat,North Cascades,Pasayten,6600.0,48.7825357,-120.3178768,0,0,0,0,0,0,1,1,0,1,1,0,very strenuous,11
319,Blue Lake,North Cascades,Mount Baker Area,3984.0,48.656539,-121.7722613,0,0,1,0,0,1,1,1,0,1,0,0,easy,12
320,Aurora Creek,Olympic Peninsula,Northern Coast,4200.0,48.0536153,-123.9892995,0,0,0,0,1,1,0,0,0,0,0,0,very strenuous,7
321,West Cady Ridge to Benchmark Mountain,Central Cascades,Stevens Pass - West,5816.0,47.92673333,-121.27705,0,0,0,0,0,0,1,0,0,0,0,0,very strenuous,9
322,Bedal Basin,North Cascades,Mountain Loop Highway,4700.0,48.070136,-121.375279,0,1,0,0,1,0,1,1,0,0,0,0,moderately strenuous,1
323,Baldy,Olympic Peninsula,Northern Coast,6827.0,47.88288949,-123.1427295,0,0,0,0,0,0,1,1,1,0,1,0,very strenuous,4
324,Harry's Ridge,South Cascades,Mount St. Helens,4752.0,46.2765199,-122.2164843,0,0,1,0,0,1,0,1,0,0,1,0,moderately strenuous,11
325,Mohawk Falls and Mohawk Mine,Central Cascades,Stevens Pass - West,1500.0,47.6752794,-121.3922747,0,0,0,1,1,0,0,0,0,0,0,0,easy,2
326,Mount Margaret,South Cascades,Mount St. Helens,5780.0,46.30493424,-122.0825458,0,0,0,0,0,0,1,1,1,0,1,1,very strenuous,4
327,Mailbox Peak,Snoqualmie Region,North Bend Area,4822.0,47.4674903,-121.674803,0,0,0,0,0,1,0,1,1,0,0,0,very strenuous,6
328,Comet Falls,Mount Rainier Area,SW - Longmire/Paradise,4875.0,46.77903333,-121.7823,0,1,0,1,0,0,0,0,0,0,0,0,moderate,2
329,Pinnacle Saddle,Mount Rainier Area,SE - Cayuse Pass/Stevens Canyon,5920.0,46.76828333,-121.7314167,0,0,0,0,0,0,1,1,0,1,1,0,moderate,11
330,Troublesome Creek Nature,Central Cascades,Stevens Pass - West,1420.0,47.89828333,-121.40145,0,1,0,1,1,0,0,0,0,0,0,1,easy,2
331,Alpine Falls,Central Cascades,Stevens Pass - West,1450.0,47.71747117,-121.2253332,0,1,0,1,0,0,1,0,0,0,0,0,easy,2
332,Dewey Lake,Mount Rainier Area,Chinook Pass - Hwy 410,5900.0,46.8694,-121.51965,0,0,1,0,0,0,1,1,0,0,0,1,moderately strenuous,8
333,Miller Peninsula-Thompson Spit,Olympic Peninsula,Northern Coast,360.0,48.07690985,-122.9378764,1,0,0,0,0,0,0,0,0,0,0,0,moderate,3
334,Coldwater Peak,South Cascades,Mount St. Helens,5727.0,46.27671222,-122.2168174,0,0,0,0,0,0,1,1,0,0,0,0,very strenuous,5
335,North Mountain Lookout,North Cascades,Mountain Loop Highway,3956.0,48.3088125,-121.611125,0,1,0,0,0,0,0,1,1,0,0,0,moderate,6
336,Longmire to Cougar Rock Campground,Mount Rainier Area,SW - Longmire/Paradise,4100.0,46.75029683,-121.8122113,0,1,0,0,0,0,0,0,0,1,0,0,moderately strenuous,13
337,Image Lake via Miners Ridge,North Cascades,Mountain Loop Highway,6000.0,48.19206888,-121.0385656,0,0,1,0,1,0,1,1,0,0,1,1,very strenuous,8
338,Hummocks Trail,South Cascades,Mount St. Helens,2500.0,46.28685,-122.2717,0,1,0,0,0,0,1,1,0,1,0,0,easy,13
339,Kettle Crest Trail,Eastern Washington,Okanogan Highlands/Kettle River Range,7140.0,48.50099538,-118.4214592,0,0,0,0,0,0,1,0,1,1,0,1,very strenuous,0
340,Lost Lake,Central Cascades,Stevens Pass - West,962.0,47.949847,-121.888791,0,0,0,0,0,0,0,0,0,0,0,0,moderate,9
341,Boulder Lake,North Cascades,Mountain Loop Highway,4980.0,48.31701034,-121.3550301,0,1,1,1,1,0,1,1,0,0,0,1,strenuous,10
342,Dutch Miller Gap,Snoqualmie Region,Snoqualmie Pass,5000.0,47.51035,-121.3495167,0,0,0,0,0,0,0,0,0,0,0,0,very strenuous,9
343,Goat Creek Loop,South Cascades,Mount St. Helens,5250.0,46.43064157,-122.1528109,0,1,0,1,1,1,0,1,0,0,1,1,very strenuous,10
344,Cama Beach Historical State Park,Puget Sound and Islands,Bellingham Area,275.0,48.14213277,-122.5126755,1,0,1,0,1,1,1,0,0,1,0,0,easy,3
345,Snow Lakes,Central Cascades,Leavenworth Area,5500.0,47.54413333,-120.7097,0,1,1,1,0,0,1,1,0,1,1,1,very strenuous,10
346,Mount St. Helens - Monitor Ridge,South Cascades,Mount St. Helens,8365.0,46.1460954,-122.1834833,0,0,0,0,0,1,1,1,1,0,1,0,very strenuous,4
347,Sharpe Park - Sares Head,Puget Sound and Islands,Bellingham Area,490.0,48.43061723,-122.664628,1,0,1,0,0,1,1,1,1,1,0,0,easy,3
348,Church Mountain,North Cascades,Mount Baker Area,6100.0,48.9123,-121.8578,0,0,0,0,0,1,1,1,1,0,1,0,very strenuous,4
349,Tolt Pipeline Trail,Puget Sound and Islands,Seattle-Tacoma Area,535.0,47.74607634,-122.2021937,0,1,0,0,0,1,1,0,0,1,0,0,very strenuous,7
350,Liberty Lake Regional Park - Liberty Lake Loop Trail,Eastern Washington,Spokane Area/Coeur d'Alene,3280.0,47.63696974,-117.0609347,0,0,1,1,1,0,0,0,0,0,0,0,strenuous,2
351,Schmitz Preserve Park,Puget Sound and Islands,Seattle-Tacoma Area,325.0,47.57760702,-122.4022726,0,0,0,0,1,1,1,0,0,1,0,0,easy,7
352,Mildred Point,Mount Rainier Area,SW - Longmire/Paradise,5900.0,46.75174109,-121.8123722,0,0,0,1,1,0,1,1,0,0,1,0,very strenuous,10
353,Poo Poo Point,Issaquah Alps,Tiger Mountain,2021.0,47.52461275,-122.0261121,0,0,0,0,0,0,1,1,0,1,0,0,strenuous,5
354,Flapjack Lakes via North Fork Skokomish River,Olympic Peninsula,Hood Canal,3850.0,47.516133,-123.328183,0,1,1,1,0,0,0,0,0,0,0,1,very strenuous,10
355,Gladys Divide,Olympic Peninsula,Hood Canal,5050.0,47.51819372,-123.3324262,0,0,0,0,0,0,1,1,0,1,1,0,very strenuous,11
356,Horseshoe Lake,Central Cascades,Leavenworth Area,6300.0,47.5300271,-120.8179317,0,0,1,1,0,0,0,1,0,0,1,0,very strenuous,10
357,Kestner Homestead - Maple Glade,Olympic Peninsula,Pacific Coast,260.0,47.505167,-123.821333,0,0,0,0,0,0,0,0,0,0,0,0,easy,9
358,Scorpion Mountain via Johnson Ridge,Central Cascades,Stevens Pass - West,5540.0,47.7966,-121.2622,0,0,1,0,0,1,1,1,1,0,1,0,very strenuous,4
359,Shellrock Peak,Mount Rainier Area,Chinook Pass - Hwy 410,6835.0,46.7156938,-121.1653805,0,0,0,0,0,0,0,0,0,0,0,0,very strenuous,9
360,Queets Campground Loop,Olympic Peninsula,Pacific Coast,300.0,47.61641667,-124.0320667,0,1,0,0,1,1,1,1,0,1,0,1,easy,1
361,Killen Creek to High Camp,South Cascades,Mount Adams Area,6900.0,46.28846667,-121.5525167,0,0,0,0,1,0,1,1,0,1,0,1,very strenuous,8
362,Thunder Mountain Lakes,Central Cascades,Stevens Pass - West,6500.0,47.710315,-121.152417,0,1,1,1,1,0,1,1,1,1,1,1,very strenuous,10
363,Mount Baring,Central Cascades,Stevens Pass - West,6129.0,47.78836356,-121.4481926,0,0,0,0,1,0,0,1,1,1,0,0,very strenuous,6
364,Deadhorse Creek,Mount Rainier Area,SW - Longmire/Paradise,5820.0,46.78517698,-121.7415512,0,0,0,0,0,0,0,1,0,0,0,0,moderate,5
365,Bench and Snow Lakes,Mount Rainier Area,SE - Cayuse Pass/Stevens Canyon,4725.0,46.76784973,-121.7076212,0,0,1,0,0,0,1,1,0,0,0,1,moderate,8
366,Silver Falls Loop,Mount Rainier Area,SE - Cayuse Pass/Stevens Canyon,2300.0,46.73305,-121.5692833,0,1,0,1,0,0,0,0,0,0,0,1,moderate,2
367,Emmons Moraine,Mount Rainier Area,NE - Sunrise/White River,5200.0,46.90215,-121.6436833,0,1,1,0,0,0,0,1,0,0,0,0,moderate,12
368,Sourdough Ridge,Mount Rainier Area,NE - Sunrise/White River,6800.0,46.914617,-121.642333,0,0,0,0,0,0,0,1,0,1,1,0,easy,11
369,Lime Kiln State Park,Puget Sound and Islands,San Juan Islands,207.0,48.51554826,-123.149168,1,0,0,0,0,0,0,0,0,0,0,0,easy,3
370,Little Spokane Natural Area - Little Spokane River,Eastern Washington,Spokane Area/Coeur d'Alene,2459.0,47.78098262,-117.4964843,0,1,0,0,0,0,0,0,0,1,0,0,moderately strenuous,9
371,Lake Valhalla Snowshoe,Central Cascades,Stevens Pass - East,4800.0,47.78469886,-121.0342567,0,0,1,0,0,0,0,1,0,0,0,0,very strenuous,12
372,Licorice Fern Trail,Issaquah Alps,Cougar Mountain,700.0,47.50278114,-122.1119468,0,0,0,1,1,0,1,0,0,1,0,0,easy,2
373,Lava Butte,South Cascades,Dark Divide,2400.0,45.94868333,-121.9352667,0,1,0,0,0,1,1,0,0,0,0,1,moderate,7
374,Joe Lake,Snoqualmie Region,Snoqualmie Pass,4625.0,47.3957957,-121.3790364,0,0,1,0,1,0,1,1,0,0,0,1,very strenuous,8
375,Mink Lake to Little Divide,Olympic Peninsula,Northern Coast,4130.0,47.96931667,-123.86415,0,1,1,1,1,0,1,1,0,1,1,1,very strenuous,10
376,Larch Mountain,Southwest Washington,Columbia River Gorge - OR,4050.0,45.5776,-122.117233,0,0,0,0,0,0,1,1,1,0,0,1,very strenuous,6
377,Lake 22 - Winter,North Cascades,Mountain Loop Highway,2440.0,48.077615,-121.7468853,0,0,1,0,0,0,0,1,0,0,0,0,moderately strenuous,12
378,Layser Cave,South Cascades,White Pass/Cowlitz River Valley,2400.0,46.46150784,-121.8600351,0,0,0,0,1,0,0,1,0,0,0,0,easy,5
379,Lemei Lake,South Cascades,Mount Adams Area,5100.0,46.0184285,-121.7748427,0,0,1,0,0,0,1,0,0,1,0,0,moderate,12
380,Lake Chelan State Park - Little Bear Trail,Central Cascades,Entiat Mountains/Lake Chelan,1350.0,47.8669734,-120.1794995,0,0,1,0,0,0,1,0,0,1,0,1,easy,8
381,Thorp Mountain via Knox Creek,Snoqualmie Region,Salmon La Sac/Teanaway,5854.0,47.35662359,-121.1824998,0,0,0,0,1,1,1,1,1,0,0,0,moderately strenuous,6
382,Lake Laura Backdoor,Snoqualmie Region,Snoqualmie Pass,4800.0,47.39055484,-121.3474442,0,1,1,1,1,0,1,1,0,0,1,1,moderate,10
383,Kodak Peak,Central Cascades,Stevens Pass - East,6121.0,47.91839268,-121.0876393,0,0,0,0,0,0,1,1,1,0,1,0,moderately strenuous,4
384,Kendall Peak Lakes,Snoqualmie Region,Snoqualmie Pass,4500.0,47.42851888,-121.3760834,0,1,1,1,0,0,0,1,0,0,0,0,strenuous,2
385,Kendall Peak,Snoqualmie Region,Snoqualmie Pass,5784.0,47.427855,-121.4133453,0,0,0,0,0,0,0,1,1,0,1,0,very strenuous,4
386,Caribou Ridge Hike,Eastern Washington,Spokane Area/Coeur d'Alene,4400.0,47.60765315,-116.6690433,0,0,0,0,0,0,0,0,0,0,0,0,very strenuous,9
387,Grand Valley via Grand Pass Trail,Olympic Peninsula,Northern Coast,6450.0,47.91829785,-123.3822155,0,0,1,0,0,0,1,1,1,0,1,0,very strenuous,4
388,Douglas Creek Canyon - North,Central Washington,Wenatchee,1700.0,47.4986308,-119.9116704,0,0,0,1,0,0,1,1,0,1,0,0,easy,2
389,Palouse to Cascades Trail - Thorp Trailhead,Snoqualmie Region,Cle Elum Area,1820.0,47.0593,-120.6734,0,1,0,0,0,0,1,1,0,0,0,1,moderate,1
390,Catherine Creek - Tracy Hill Loop,Southwest Washington,Columbia River Gorge - WA,1870.0,45.7104335,-121.3620894,0,0,0,0,0,0,0,0,0,0,0,0,moderately strenuous,9
391,Carlton Ridge,South Cascades,White Pass/Cowlitz River Valley,5600.0,46.71280837,-121.4898434,0,0,0,0,0,0,0,0,0,0,0,0,very strenuous,9
392,Badger Peak,South Cascades,Dark Divide,5664.0,46.3097,-121.9303,0,0,0,0,1,0,1,1,1,1,0,0,strenuous,6
393,Reflection and Louise Lakes Snowshoe,Mount Rainier Area,SW - Longmire/Paradise,5100.0,46.7666069,-121.6990741,0,0,1,0,0,0,0,1,0,0,1,0,moderate,11
394,Mazama Ridge Snowshoe,Mount Rainier Area,SW - Longmire/Paradise,5700.0,46.78603333,-121.7349833,0,0,1,0,0,0,0,1,0,0,1,0,moderately strenuous,11
395,Lake Lillian,Snoqualmie Region,Snoqualmie Pass,5300.0,47.36418333,-121.3581667,0,0,1,0,1,0,1,0,0,1,0,0,strenuous,1
396,Snow Creek,Olympic Peninsula,Hood Canal,4274.0,47.9220167,-122.98275,0,1,0,0,0,0,0,1,0,0,0,0,moderately strenuous,13
397,Oil City,Olympic Peninsula,Pacific Coast,50.0,47.7493459,-124.408511,1,1,0,0,0,0,0,0,0,1,0,0,easy,3
398,Third Beach,Olympic Peninsula,Pacific Coast,280.0,47.89058333,-124.5990167,1,0,0,1,1,0,0,0,0,1,0,0,easy,3
399,Thorp Mountain - Winter,Snoqualmie Region,Snoqualmie Pass,5100.0,47.3725515,-121.1597297,0,0,0,0,0,0,0,0,0,0,0,0,very strenuous,9
400,Mount Townsend - Winter,Olympic Peninsula,Hood Canal,5500.0,47.8558656,-123.0359764,0,0,0,0,0,0,0,1,1,0,0,0,very strenuous,6
401,Wilburton Hill Park,Puget Sound and Islands,Seattle-Tacoma Area,230.0,47.6100664,-122.1748781,0,0,0,0,0,1,1,0,0,1,0,0,easy,7
402,Camano Island State Park,Puget Sound and Islands,Bellingham Area,200.0,48.12196667,-122.4910167,1,0,0,0,0,0,0,0,0,0,0,0,easy,3
403,Ohme Gardens County Park,Central Washington,Wenatchee,800.0,47.47804934,-120.32639,0,0,0,1,0,1,0,1,0,0,0,0,easy,2
404,Anacortes Community Forest Lands - Mount Erie,Puget Sound and Islands,Whidbey Island,1300.0,48.46901616,-122.6293685,1,0,1,0,0,0,0,1,1,1,0,0,moderately strenuous,3
405,Duke of Kent,Snoqualmie Region,North Bend Area,4840.0,47.40928475,-121.6022587,0,0,0,0,0,0,0,0,0,0,0,0,very strenuous,9
406,Deception Crags,Snoqualmie Region,Snoqualmie Pass,1450.0,47.43808333,-121.6611,0,0,0,0,0,0,0,0,0,0,0,0,easy,9
407,Burfoot County Park,Olympic Peninsula,Olympia,200.0,47.1325162,-122.9016522,1,0,0,0,0,0,0,0,0,0,0,0,easy,3
408,Ravensdale Retreat Natural Area,Puget Sound and Islands,Seattle-Tacoma Area,767.0,47.35550971,-121.9774991,0,0,0,0,0,1,0,0,0,0,0,0,easy,7
409,Big Four Ice Caves Snowshoe,North Cascades,Mountain Loop Highway,1800.0,48.065107,-121.5067819,0,1,0,0,1,0,0,1,0,0,0,0,moderate,1
410,Big Creek Falls,Southwest Washington,Lewis River Region,1900.0,46.0939,-121.9072667,0,0,0,1,1,0,0,0,0,0,0,0,easy,2
411,Avalanche Mountain,Snoqualmie Region,Snoqualmie Pass,5400.0,47.4570251,-121.4444679,0,0,1,0,0,0,0,1,1,0,0,0,very strenuous,6
412,Baldy Mountain,Central Cascades,Entiat Mountains/Lake Chelan,6412.0,47.82036978,-120.3110044,0,0,1,0,0,0,0,1,1,0,0,0,strenuous,6
413,Bedal Peak,North Cascades,Mountain Loop Highway,6554.0,48.070136,-121.375279,0,0,0,0,1,0,1,0,1,0,0,0,very strenuous,6
414,Asahel Curtis Nature Trail,Snoqualmie Region,Snoqualmie Pass,2000.0,47.39266667,-121.4744167,0,0,0,0,1,0,0,0,0,0,0,0,easy,1
415,Anderson Lake State Park,Olympic Peninsula,Hood Canal,320.0,48.01789765,-122.8038561,0,0,1,0,1,0,1,0,0,1,0,0,easy,1
416,Ape Canyon,South Cascades,Mount St. Helens,2800.0,46.16466667,-122.0921167,0,0,0,0,1,0,1,1,0,1,0,0,strenuous,5
417,Arch Rock,Mount Rainier Area,Chinook Pass - Hwy 410,5900.0,47.09296667,-121.4048667,0,0,0,0,0,0,1,0,0,0,1,0,strenuous,11
418,Anacortes Community Forest Lands - Heart Lake,Puget Sound and Islands,Whidbey Island,620.0,48.47511201,-122.6272488,0,0,1,0,0,1,0,0,0,1,0,0,easy,7
419,Copper Peak,Central Cascades,Entiat Mountains/Lake Chelan,8964.0,48.174696,-120.804001,0,0,0,0,0,1,1,1,1,0,1,0,very strenuous,4
420,Badger Mountain - The Langdon Trail,Central Washington,Tri-Cities,1570.0,46.2420645,-119.3424356,0,0,0,0,0,1,1,1,0,1,0,0,moderately strenuous,0
421,Rotary Dominion Meadows Trail,Eastern Washington,Selkirk Range,1920.0,48.53645954,-117.8743709,0,0,0,0,0,1,1,1,0,1,0,0,easy,0
422,Elk Creek Falls,Eastern Washington,Selkirk Range,2820.0,48.85190224,-117.2863309,0,0,0,1,0,1,0,1,0,0,0,0,easy,2
423,Plummer Peak,Mount Rainier Area,SW - Longmire/Paradise,6359.0,46.76823414,-121.731131,0,0,0,0,0,0,1,1,1,1,1,0,moderately strenuous,4
424,Pratt Mountain,Snoqualmie Region,North Bend Area,5099.0,47.3957928,-121.4775467,0,0,1,0,0,0,0,1,1,0,0,0,very strenuous,6
425,Palouse to Cascades Trail - Army East,Central Washington,Yakima,1500.0,46.843727,-119.9643955,0,0,0,0,0,0,1,0,0,0,0,0,moderate,9
426,North Fork Loop,South Cascades,White Pass/Cowlitz River Valley,1800.0,46.45339,-121.78683,0,1,0,0,1,1,0,0,0,1,0,1,easy,1
427,West Defiance - Putrid Pete's Peak,Snoqualmie Region,North Bend Area,5220.0,47.42671703,-121.58638,0,0,0,0,0,0,1,1,1,0,1,0,strenuous,4
428,Beacon Rock State Park - Beacon Rock,Southwest Washington,Columbia River Gorge - WA,848.0,45.62906667,-122.0218667,0,1,0,0,0,0,0,0,0,0,0,0,easy,13
429,Rattlesnake Mountain,Snoqualmie Region,North Bend Area,3500.0,47.5092028,-121.8433568,0,0,0,0,0,0,0,1,1,0,1,0,very strenuous,4
430,Kaleetan Peak,Snoqualmie Region,Snoqualmie Pass,6224.0,47.4152381,-121.4432959,0,0,1,1,0,0,0,1,1,0,1,0,very strenuous,10
431,Tuck and Robin Lakes,Snoqualmie Region,Salmon La Sac/Teanaway,6300.0,47.5442537,-121.0970237,0,0,1,0,1,0,1,1,1,0,1,1,very strenuous,4
432,Big Creek,Olympic Peninsula,Hood Canal,1850.0,47.493317,-123.211017,0,1,0,0,1,0,0,1,0,0,0,1,moderate,1
433,Mount Si - Old Trail,Snoqualmie Region,North Bend Area,3980.0,47.48672699,-121.7534354,0,0,0,1,1,1,1,1,1,1,0,0,very strenuous,10
434,Rock Creek - Red Pass Loop,Snoqualmie Region,Snoqualmie Pass,5400.0,47.44541976,-121.4235286,0,1,0,1,1,0,0,1,0,0,1,0,very strenuous,2
435,Round Mountain,Central Cascades,Stevens Pass - East,5700.0,47.7923,-120.7944,0,0,0,0,0,0,0,1,1,0,0,0,moderately strenuous,6
436,Mirror and Cottonwood Lakes,Snoqualmie Region,Snoqualmie Pass,4200.0,47.34602002,-121.4244175,0,0,1,0,0,1,1,0,0,0,0,1,moderate,8
437,Willapa National Wildlife Refuge - Leadbetter Point,Southwest Washington,Long Beach Area,35.0,46.5969838,-124.0521006,1,0,0,0,0,0,0,0,0,0,0,0,easy,3
438,Big Four Ice Caves,North Cascades,Mountain Loop Highway,1938.0,48.06591667,-121.5107333,0,1,0,1,1,0,0,1,0,0,0,0,easy,2
439,No Name Ridge - Thorp Mountain,Snoqualmie Region,Salmon La Sac/Teanaway,5854.0,47.410083,-121.20875,0,0,1,0,0,0,0,1,0,0,0,0,moderately strenuous,12
440,Headlee Pass and Vesper Lake,North Cascades,Mountain Loop Highway,4950.0,48.02505,-121.4778833,0,1,1,0,0,0,1,1,0,0,1,0,strenuous,11
441,Glacier Vista - Panorama Point,Mount Rainier Area,SW - Longmire/Paradise,6700.0,46.786033,-121.734983,0,0,0,0,0,0,1,1,0,1,0,0,moderately strenuous,5
442,Columbia River Renaissance Trail,Southwest Washington,Vancouver Area,50.0,45.61132815,-122.6054585,0,1,0,0,0,0,0,1,0,1,0,0,easy,13
443,Fort Flagler State Park,Olympic Peninsula,Hood Canal,150.0,48.094788,-122.722761,1,0,0,0,0,0,0,0,0,1,0,1,easy,3
444,Seven Pass Loop (Pasayten),North Cascades,Pasayten,7446.0,48.7276805,-120.6643376,0,1,0,0,0,1,1,1,1,1,1,0,very strenuous,4
445,Cutthroat Lake,North Cascades,North Cascades Highway - Hwy 20,4900.0,48.55629899,-120.6547435,0,0,1,0,0,1,0,1,0,0,0,0,moderate,12
446,Boardman Lake,North Cascades,Mountain Loop Highway,3050.0,48.0337,-121.6858,0,0,1,0,1,0,0,1,0,0,0,1,easy,8
447,Valhalla Peak,Olympic Peninsula,Hood Canal,5345.0,47.75606,-123.09524,0,1,0,0,0,0,1,1,1,0,0,1,very strenuous,6
448,Davis Peak,Snoqualmie Region,Cle Elum Area,6400.0,47.418727,-121.084634,0,0,0,0,0,0,1,1,0,0,1,0,very strenuous,11
449,Dirty Harry's Balcony,Snoqualmie Region,Snoqualmie Pass,2600.0,47.43116979,-121.6323939,0,0,0,0,0,1,0,1,0,1,0,0,moderately strenuous,7
450,PJ Lake,Olympic Peninsula,Northern Coast,5020.0,47.945833,-123.425467,0,0,1,1,0,0,1,1,0,1,0,1,moderate,10
451,Sultan River Canyon Trail,Central Cascades,Stevens Pass - West,1700.0,47.97249909,-121.6801286,0,1,0,1,0,0,0,0,0,0,0,0,moderate,2
452,Anacortes Community Forest Lands - Little Cranberry Lake,Puget Sound and Islands,Whidbey Island,250.0,48.50415168,-122.6449379,1,0,1,0,0,1,1,0,0,1,0,0,easy,3
453,Washington Park,Puget Sound and Islands,San Juan Islands,250.0,48.49912196,-122.6927403,1,0,1,0,0,0,1,0,0,1,0,0,easy,3
454,Mount Stuart,Snoqualmie Region,Salmon La Sac/Teanaway,9416.0,47.4751179,-120.9031444,0,0,0,0,0,0,1,1,0,0,1,1,very strenuous,11
455,Spray Park Loop,Mount Rainier Area,NW - Carbon River/Mowich,6375.0,46.9330697,-121.8642847,0,0,1,1,0,1,1,1,0,0,1,1,very strenuous,10
456,Eastside Loop,Mount Rainier Area,NE - Sunrise/White River,6800.0,46.89069203,-121.5968256,0,0,0,0,0,0,0,0,0,0,0,0,very strenuous,9
457,Columbia National Wildlife Refuge - Rimrock Lake,Central Washington,Potholes Region,1060.0,46.936783,-119.24445,0,0,1,0,0,0,1,0,0,1,0,0,easy,13
458,Tamanos Mountain,Mount Rainier Area,SE - Cayuse Pass/Stevens Canyon,6790.0,46.89078331,-121.5967548,0,0,1,0,0,0,1,1,1,0,0,0,very strenuous,6
459,Deer Creek Falls to Owyhigh Lakes,Mount Rainier Area,SE - Cayuse Pass/Stevens Canyon,5400.0,46.83353333,-121.5351167,0,1,0,1,1,0,1,0,0,0,0,0,very strenuous,2
460,Mailbox Peak - Old Trail,Snoqualmie Region,North Bend Area,4822.0,47.46741667,-121.67485,0,0,0,0,1,0,1,1,1,0,0,0,very strenuous,6
461,Thompson Lake via Granite Creek Trail,Snoqualmie Region,North Bend Area,4200.0,47.4921,-121.6399,0,1,1,0,0,0,0,1,0,0,0,0,very strenuous,12
462,Hurricane Hill,Olympic Peninsula,Northern Coast,5757.0,47.97656667,-123.5178167,0,0,0,0,0,0,1,1,1,1,1,0,moderate,4
463,Buckhorn Mountain,Olympic Peninsula,Hood Canal,6988.0,47.82675569,-123.1165695,0,0,0,0,0,0,1,1,1,1,0,0,strenuous,0
464,Lewis Butte,North Cascades,Methow/Sawtooth,3346.0,48.5070732,-120.2196567,0,0,0,0,0,0,1,1,0,0,0,0,moderate,5
465,Marmot Pass via Upper Dungeness River Trail,Olympic Peninsula,Hood Canal,6000.0,47.87793333,-123.13695,0,1,0,0,1,0,1,1,0,0,1,1,very strenuous,11
466,Grand Ridge,Olympic Peninsula,Northern Coast,6625.0,47.91841667,-123.3821167,0,0,0,0,0,0,1,1,1,1,1,1,very strenuous,4
467,Cascade Trail,Puget Sound and Islands,Bellingham Area,230.0,48.517885,-122.20873,0,1,0,0,0,0,0,0,0,0,0,0,moderate,13
468,Margaret's Way,Issaquah Alps,Squak Mountain,1730.0,47.50657335,-122.0866515,0,0,0,0,1,1,0,1,0,0,0,0,moderately strenuous,5
469,Lake Valhalla,Central Cascades,Stevens Pass - East,5050.0,47.74791667,-121.0883,0,1,0,1,0,1,0,0,1,0,0,0,moderately strenuous,2
470,Catherine Creek - Universal Access Trail,Southwest Washington,Columbia River Gorge - WA,300.0,45.7103935,-121.3621588,0,1,0,0,0,0,1,1,0,0,0,0,easy,13
471,Caroline Peak,Snoqualmie Region,Snoqualmie Pass,5885.0,47.481121,-121.503992,0,0,0,0,0,0,0,0,0,0,0,0,very strenuous,9
472,Anacortes Community Forest Lands - Little Round Top,Puget Sound and Islands,Whidbey Island,915.0,48.47973402,-122.6143274,1,0,0,0,0,1,1,1,1,1,0,0,moderate,3
473,Westcrest Park,Puget Sound and Islands,Seattle-Tacoma Area,340.0,47.5211206,-122.3428488,0,0,0,0,0,1,1,1,0,1,0,0,easy,7
474,Seminary Hill Natural Area,Southwest Washington,Lewis River Region,500.0,46.71335567,-122.9447539,0,0,0,0,0,1,0,1,0,0,0,0,moderate,7
475,Anderson Island,Puget Sound and Islands,Seattle-Tacoma Area,50.0,47.1497353,-122.7238297,1,0,0,0,0,1,0,0,0,0,0,0,easy,3
476,Copper City Ghost Town,Mount Rainier Area,Chinook Pass - Hwy 410,4076.0,46.86890614,-121.2932809,0,0,0,0,0,0,0,0,0,0,0,0,easy,9
477,Apple Capital Recreation Loop Trail,Central Washington,Wenatchee,692.0,47.46266894,-120.3241537,0,1,0,0,0,0,0,1,0,0,0,0,moderately strenuous,13
478,Glines Canyon Overlook Trail,Olympic Peninsula,Northern Coast,450.0,48.00192417,-123.600352,0,1,0,0,0,0,0,0,0,1,0,0,easy,13
479,Little Creek Trail,Issaquah Alps,Cougar Mountain,900.0,47.53546016,-122.1287268,0,1,0,0,0,1,1,0,0,0,0,0,easy,7
480,Hoh River Trail to Five Mile Island,Olympic Peninsula,Pacific Coast,800.0,47.85966667,-123.9337167,0,1,0,0,1,0,0,1,0,1,0,1,moderate,1
481,Island Lake - Rainbow Lake,Snoqualmie Region,Snoqualmie Pass,4400.0,47.39785156,-121.4865616,0,0,1,0,0,0,0,1,0,0,0,0,very strenuous,12
482,Paradise Valley Conservation Area,Puget Sound and Islands,Seattle-Tacoma Area,450.0,47.78980522,-122.0818806,0,1,0,0,0,1,1,0,0,1,0,0,easy,7
483,Fremont Lookout,Mount Rainier Area,NE - Sunrise/White River,7200.0,46.91461667,-121.6423333,0,0,1,0,0,0,0,1,0,1,1,0,moderately strenuous,11
484,Mountain Climbers Trail,South Cascades,Mount Adams Area,8300.0,46.15350574,-121.4249438,0,0,1,1,0,1,1,1,1,1,1,1,strenuous,10
485,Hellroaring Meadows,South Cascades,Mount Adams Area,5373.0,46.156724,-121.411389,0,1,1,0,0,0,0,1,0,0,0,0,easy,12
486,Bird Creek Meadows,South Cascades,Mount Adams Area,6085.0,46.1392889,-121.4376365,0,0,1,0,0,0,1,0,0,0,0,0,moderate,12
487,Umtanum Creek Canyon,Central Washington,Yakima,1800.0,46.855402,-120.4833019,0,1,0,0,0,1,1,0,0,1,0,0,moderate,7
488,Loowit Trail,South Cascades,Mount St. Helens,4800.0,46.2496975,-122.1363446,0,1,0,1,0,0,1,1,0,0,1,1,very strenuous,10
489,Anacortes Community Forest Lands - Sugarloaf,Puget Sound and Islands,Whidbey Island,1275.0,48.46761056,-122.6294659,0,0,1,0,0,1,0,1,1,1,0,0,moderate,0
490,Guemes Channel and Ship Harbor,Puget Sound and Islands,San Juan Islands,110.0,48.5037477,-122.6703387,1,0,0,0,0,1,1,1,0,1,0,0,easy,3
491,Colchuck Lake,Central Cascades,Leavenworth Area,5580.0,47.5277,-120.8209833,0,1,1,0,0,1,0,1,1,0,0,1,strenuous,6
492,Verlot Nature Trail,North Cascades,Mountain Loop Highway,1035.0,48.09047,-121.77893,0,1,0,0,1,0,0,0,0,0,0,0,easy,1
493,Source Lake,Snoqualmie Region,Snoqualmie Pass,4100.0,47.44541667,-121.4230167,0,1,1,0,0,0,0,1,0,0,0,0,moderate,12
494,Icicle Gorge Nature Loop,Central Cascades,Leavenworth Area,2800.0,47.60855,-120.8945333,0,1,0,1,0,1,1,0,0,1,0,0,easy,2
495,Lake Ethel,Central Cascades,Stevens Pass - East,5735.0,47.77221417,-120.8330317,0,0,1,0,1,1,1,1,0,1,0,1,very strenuous,8
496,Kendall Katwalk,Snoqualmie Region,Snoqualmie Pass,5400.0,47.42785,-121.41348,0,0,0,0,1,1,1,1,0,0,1,0,very strenuous,11
497,White Bluffs - North,Central Washington,Tri-Cities,725.0,46.677167,-119.44455,0,1,0,0,0,0,1,0,0,1,0,0,moderate,13
498,Discovery Park Loop Trail,Puget Sound and Islands,Seattle-Tacoma Area,325.0,47.6576099,-122.4064794,1,0,0,0,0,1,1,1,0,1,0,0,easy,3
499,Upper Twin Lake,Central Cascades,Leavenworth Area,2850.0,47.89601914,-120.8223152,0,1,1,0,0,0,0,0,0,1,0,0,moderate,13
500,Mount Persis,Central Cascades,Stevens Pass - West,5464.0,47.7931255,-121.6449381,0,0,0,0,0,0,0,1,1,0,0,0,moderately strenuous,6
501,Lover's Lane Loop,Olympic Peninsula,Northern Coast,2000.0,47.9621814,-123.8498612,0,1,0,1,1,1,0,0,0,0,0,1,moderate,2
502,Sol Duc Falls,Olympic Peninsula,Northern Coast,1951.0,47.9621913,-123.8498927,0,1,0,1,1,0,1,0,0,0,0,1,easy,2
503,Cape Alava Loop (Ozette Triangle),Olympic Peninsula,Pacific Coast,350.0,48.153554,-124.6679127,1,0,0,0,0,0,0,0,0,1,0,1,easy,3
504,Pyramid Mountain,Central Cascades,Entiat Mountains/Lake Chelan,8260.0,48.01805556,-120.5052778,0,0,0,0,0,0,1,1,1,1,1,0,very strenuous,4
505,Pugh Ridge,Central Cascades,Entiat Mountains/Lake Chelan,6783.0,48.0113,-120.57225,0,0,0,0,0,0,1,1,0,1,1,0,very strenuous,11
506,Naches Trail,Mount Rainier Area,Chinook Pass - Hwy 410,5100.0,47.10857787,-121.4749064,0,0,0,0,0,0,0,0,0,1,0,0,very strenuous,9
507,McCormick Forest Park,Olympic Peninsula,Kitsap Peninsula,400.0,47.35116437,-122.6213452,0,0,0,0,1,1,0,0,0,1,0,0,easy,7
508,Twin Ponds Park,Puget Sound and Islands,Seattle-Tacoma Area,340.0,47.73875077,-122.3343626,0,0,1,0,0,1,0,0,0,1,0,0,easy,7
509,Squibbs Creek,Puget Sound and Islands,Seattle-Tacoma Area,700.0,47.56672902,-122.1375343,0,1,0,0,1,1,0,0,0,0,0,0,easy,1
510,Gypsy Peak,Eastern Washington,Selkirk Range,7309.0,48.94572437,-117.1518517,0,0,1,0,0,0,0,1,0,1,0,0,very strenuous,12
511,Buck Creek-Morrison Creek-Wicky Creek Loop,South Cascades,Mount Adams Area,1800.0,46.058292,-121.540966,0,1,0,0,1,0,1,1,0,1,0,0,very strenuous,1
512,Thirteenmile via Bear Pot Trailhead,Eastern Washington,Okanogan Highlands/Kettle River Range,4885.0,48.48134363,-118.7280592,0,0,0,0,0,1,1,1,0,1,1,0,strenuous,0
513,West Seattle Bridge Trail,Puget Sound and Islands,Seattle-Tacoma Area,50.0,47.57273069,-122.3399551,0,1,0,0,0,0,0,0,0,0,0,0,easy,13
514,North Star Mountain,Central Cascades,Entiat Mountains/Lake Chelan,8096.0,48.1984,-120.7746,0,0,1,1,1,0,1,1,1,1,1,0,very strenuous,10
515,Mickinnick Trail,Eastern Washington,Spokane Area/Coeur d'Alene,4300.0,48.31083522,-116.5684212,0,0,0,0,1,0,0,1,0,0,0,0,strenuous,9
516,Redmond Powerline Trail,Puget Sound and Islands,Seattle-Tacoma Area,574.0,47.6982094,-122.0820093,0,1,0,0,0,1,1,1,0,0,0,0,moderately strenuous,7
517,Humility Hill,Central Cascades,Entiat Mountains/Lake Chelan,4358.0,47.60814767,-120.5313408,0,0,0,0,0,0,0,1,1,0,0,0,moderately strenuous,6
518,Forgotten Creek Natural Area Trail,Puget Sound and Islands,Seattle-Tacoma Area,115.0,47.97592196,-122.2186736,0,1,0,0,0,1,0,0,0,0,0,0,easy,7
519,Thirteenmile,Eastern Washington,Okanogan Highlands/Kettle River Range,4600.0,48.481441,-118.727732,0,1,0,0,0,0,1,1,0,0,0,1,very strenuous,1
520,Sullivan Lakeshore,Eastern Washington,Selkirk Range,2840.0,48.8404196,-117.2851705,0,0,0,0,0,1,0,0,0,0,0,0,moderate,9
521,Sunrise Lake,Mount Rainier Area,NE - Sunrise/White River,6150.0,46.91755,-121.5878,0,0,1,0,0,0,0,0,0,1,0,0,easy,12
522,Switchback,Olympic Peninsula,Northern Coast,5200.0,47.98657789,-123.4608924,0,0,0,0,0,0,0,1,0,1,1,0,easy,11
523,Spokane River Centennial State Park Trail,Eastern Washington,Spokane Area/Coeur d'Alene,2200.0,47.6968078,-117.4935832,0,1,0,0,0,1,0,0,0,1,0,0,very strenuous,5
524,Skyline Lake,Central Cascades,Stevens Pass - East,5100.0,47.74726667,-121.0884667,0,0,1,0,0,1,0,1,0,0,0,0,moderate,12
525,Columbia Plateau Trail - Snake River,Central Washington,Tri-Cities,750.0,46.39049622,-118.6803997,0,1,0,0,0,0,1,0,0,1,0,0,easy,13
526,Snow Peak,Eastern Washington,Okanogan Highlands/Kettle River Range,6400.0,48.5771806,-118.5233369,0,0,0,0,0,1,1,1,0,1,0,0,moderately strenuous,0
527,Darlin Creek Preserve,Olympic Peninsula,Olympia,300.0,46.95874626,-123.0379898,0,1,1,1,0,0,1,0,0,1,0,0,easy,2
528,Dishman Hills Natural Area - Lost Ponds Trail,Eastern Washington,Spokane Area/Coeur d'Alene,2296.0,47.6545535,-117.2894222,0,0,0,0,1,1,1,0,0,1,0,0,easy,0
529,Pine Ridge Park,Puget Sound and Islands,Seattle-Tacoma Area,485.0,47.81427848,-122.3455954,0,0,1,0,0,1,1,0,0,1,0,0,easy,7
530,Sawtooth Lakes Loop,North Cascades,Methow/Sawtooth,8000.0,48.21882418,-120.2235945,0,0,1,0,0,1,1,1,1,1,1,1,very strenuous,4
531,Salmon Creek Trail,Southwest Washington,Vancouver Area,60.0,45.7075108,-122.6657661,0,1,0,0,0,1,0,0,0,1,0,0,easy,7
532,Roaring Ridge Snowshoe via Road 9070,Snoqualmie Region,Snoqualmie Pass,4988.0,47.38848019,-121.3970726,0,0,0,0,0,0,0,0,0,0,0,0,very strenuous,9
533,Quillayute River Slough,Olympic Peninsula,Pacific Coast,50.0,47.91815,-124.602667,0,1,0,0,0,0,0,0,0,0,0,0,easy,13
534,Red Mountain Snowshoe,Snoqualmie Region,Salmon La Sac/Teanaway,5880.0,47.40276451,-121.1110926,0,0,1,0,1,0,0,1,1,0,0,0,very strenuous,6
535,Quartz Creek Butte,South Cascades,Dark Divide,2770.0,46.1937688,-121.7692285,0,1,0,0,1,0,0,0,0,0,0,0,moderate,1
536,Rattlesnake Dance Ridge Trail,Central Washington,Yakima,2646.0,46.8972804,-120.5039326,0,0,0,0,0,0,1,1,1,1,1,0,moderate,4
537,Rainier View,Mount Rainier Area,Chinook Pass - Hwy 410,6000.0,47.0129,-121.4642167,0,0,0,0,0,0,1,1,0,1,1,0,easy,11
538,Riley Camp,South Cascades,Mount Adams Area,5800.0,46.2323466,-121.6272174,0,0,0,0,0,0,1,1,0,0,0,0,very strenuous,5
539,Quartz Creek Big Trees,South Cascades,White Pass/Cowlitz River Valley,2000.0,46.39318724,-122.0748639,0,0,0,0,1,0,0,0,0,1,0,0,easy,1
540,Rainbow Falls State Park,Southwest Washington,Lewis River Region,450.0,46.6302,-123.23185,0,1,0,0,1,0,1,0,0,0,0,0,easy,1
541,Quartz Creek,Central Cascades,Stevens Pass - West,4000.0,47.9245459,-121.2839039,0,1,0,0,1,0,1,1,0,0,0,0,strenuous,1
542,Priest Point Park,Olympic Peninsula,Olympia,200.0,47.06969582,-122.8943356,1,0,0,0,1,0,0,1,0,1,0,0,easy,3
543,Pleasant Valley Lake,Mount Rainier Area,Chinook Pass - Hwy 410,5740.0,46.9487248,-121.3017541,0,0,1,0,0,0,1,0,0,0,0,1,strenuous,8
544,Pompey Peak,South Cascades,White Pass/Cowlitz River Valley,5180.0,46.49976667,-121.7832333,0,0,0,0,0,0,0,1,1,0,0,0,very strenuous,6
545,Primrose Overlook,Issaquah Alps,Cougar Mountain,900.0,47.5344668,-122.1303879,0,0,0,0,0,0,0,0,0,0,0,0,easy,9
546,Polallie Ridge,Snoqualmie Region,Salmon La Sac/Teanaway,5300.0,47.4093,-121.1067,0,0,0,0,0,0,1,1,0,1,0,0,very strenuous,5
547,Purcell Lookout,South Cascades,White Pass/Cowlitz River Valley,5442.0,46.58143333,-121.8326667,0,0,0,0,0,0,0,1,1,0,0,0,very strenuous,6
548,Puyallup,Mount Rainier Area,SW - Longmire/Paradise,5465.0,46.7746056,-121.9478974,0,0,1,0,1,0,1,1,0,0,1,0,very strenuous,11
549,Pacific Crest Trail (PCT) Section I - White Pass to Snoqualmie Pass,South Cascades,White Pass/Cowlitz River Valley,6530.0,46.64494774,-121.3823456,0,1,1,0,1,1,1,1,1,1,1,1,very strenuous,4
550,Old Sauk ADA Loop,North Cascades,Mountain Loop Highway,800.0,48.189515,-121.5167454,0,1,0,0,1,0,0,1,0,0,0,0,easy,1
551,Panther Creek Experimental Forest,Southwest Washington,Columbia River Gorge - WA,4000.0,45.8282,-121.8355667,0,0,0,0,1,0,0,1,0,1,1,1,moderately strenuous,8
552,Panther Creek Falls,Southwest Washington,Columbia River Gorge - WA,1800.0,45.86741349,-121.8263465,0,1,0,1,0,0,0,0,0,0,0,0,easy,2
553,Pacific Crest Trail (PCT) Section H - Bridge of the Gods to White Pass,Southwest Washington,Columbia River Gorge - WA,7800.0,45.66097599,-121.9063082,0,1,1,1,1,1,1,1,1,1,1,1,very strenuous,10
554,Peggy's Pond,Snoqualmie Region,Salmon La Sac/Teanaway,5600.0,47.53645392,-121.0918751,0,0,1,0,0,0,1,1,0,0,1,1,very strenuous,8
555,North Scatter Creek,Snoqualmie Region,Salmon La Sac/Teanaway,6200.0,47.50974049,-121.0609031,0,0,0,0,0,0,1,1,1,1,1,0,strenuous,4
556,North Butte,Puget Sound and Islands,Bellingham Area,2178.0,48.6164848,-122.3863428,0,0,0,0,0,0,0,0,0,0,0,0,moderately strenuous,9
557,Norse Peak,Mount Rainier Area,Chinook Pass - Hwy 410,6856.0,46.96436667,-121.4829,0,0,0,0,0,0,1,1,1,1,0,0,very strenuous,0
558,Nordic Pass - Hyak,Snoqualmie Region,Snoqualmie Pass,4250.0,47.39297799,-121.3958037,0,1,1,0,0,0,0,1,0,0,0,0,moderately strenuous,12
559,North Fork Sol Duc River,Olympic Peninsula,Northern Coast,2900.0,48.01075,-123.911,0,1,0,0,1,1,0,0,0,1,0,1,very strenuous,1
560,Mount Townsend - Silver Lakes Traverse,Olympic Peninsula,Hood Canal,6280.0,47.8576341,-123.0945762,0,1,1,0,1,0,0,1,1,0,0,1,very strenuous,8
561,Natapoc Mountain,Central Cascades,Leavenworth Area,4204.0,47.76980313,-120.714411,0,0,0,0,0,0,0,1,1,0,1,0,strenuous,4
562,Muddy Fork Lava Bed,South Cascades,Mount Adams Area,4900.0,46.32551667,-121.5058167,0,1,0,0,0,0,0,1,1,1,0,0,moderate,6
563,Ned Hill,Olympic Peninsula,Northern Coast,3469.0,47.968017,-123.187717,0,0,0,0,0,0,1,1,1,0,0,0,moderate,6
564,Capitol State Forest Fuzzy Top,Olympic Peninsula,Olympia,1760.0,46.937452,-123.162958,0,0,0,0,0,0,0,0,1,0,0,0,easy,6
565,Schriebers Meadow Snowshoe,North Cascades,Mount Baker Area,5200.0,48.68192254,-121.7597258,0,0,0,0,0,0,0,1,0,0,0,1,strenuous,0
566,Green Mountain - Davis Trail,Olympic Peninsula,Kitsap Peninsula,800.0,47.55178857,-122.8266978,0,0,0,0,0,0,0,0,0,0,0,0,easy,9
567,Spokane Gulch,North Cascades,Methow/Sawtooth,3100.0,48.59718828,-120.4003488,0,0,0,0,0,0,0,1,0,1,0,0,moderately strenuous,5
568,Carbon River Rain Forest Nature Trail,Mount Rainier Area,NW - Carbon River/Mowich,1780.0,46.994935,-121.916906,0,0,0,0,1,1,0,0,0,1,0,0,easy,7
569,Lakeridge Park,Puget Sound and Islands,Seattle-Tacoma Area,220.0,47.50859396,-122.2482369,0,1,0,0,0,0,0,0,0,1,0,0,easy,13
570,Earth Sanctuary,Puget Sound and Islands,Whidbey Island,164.0,48.01081,-122.49428,0,0,0,0,1,0,1,0,0,1,0,0,easy,1
571,Latourell Falls,Southwest Washington,Columbia River Gorge - OR,600.0,45.538717,-122.2177,0,0,0,1,0,0,0,0,0,0,0,0,moderate,2
572,Old Robe Canyon,North Cascades,Mountain Loop Highway,1050.0,48.11006748,-121.8558025,0,1,0,0,0,0,0,0,0,0,0,0,easy,13
573,Backbone Ridge,South Cascades,White Pass/Cowlitz River Valley,2900.0,46.66422612,-121.6003382,0,0,1,0,0,0,0,0,0,0,1,1,strenuous,8
574,Middle Fork Connector Trail,Snoqualmie Region,North Bend Area,1150.0,47.54845029,-121.5368772,0,1,0,0,1,0,0,1,0,0,0,0,easy,1
575,Deadfall,Olympic Peninsula,Hood Canal,4273.0,47.89263333,-122.9848167,0,0,0,0,0,0,0,1,1,0,0,0,strenuous,6
576,South Tiger Mountain Loop,Issaquah Alps,Tiger Mountain,2028.0,47.44324314,-121.976223,0,0,0,0,0,1,1,1,1,0,0,0,strenuous,6
577,Amabilis Mountain Snowshoe,Snoqualmie Region,Snoqualmie Pass,4570.0,47.29649131,-121.2888908,0,0,0,0,0,0,0,1,1,1,0,0,strenuous,6
578,Innis Arden Reserve Park,Puget Sound and Islands,Seattle-Tacoma Area,215.0,47.75861321,-122.376709,1,0,0,0,0,1,1,1,0,0,0,0,easy,3
579,Kendall Peak Lakes Snowshoe,Snoqualmie Region,Snoqualmie Pass,4400.0,47.39782631,-121.3952351,0,0,1,0,0,0,0,1,0,0,0,0,strenuous,12
580,Seahurst Park,Puget Sound and Islands,Seattle-Tacoma Area,398.0,47.47807025,-122.3627394,1,0,0,0,0,1,0,0,0,1,0,0,moderate,3
581,Sun Mountain Snowshoe Loop,North Cascades,Methow/Sawtooth,2877.0,48.47656297,-120.2559614,0,0,0,0,0,0,0,1,0,0,0,0,moderate,5
582,Mosquito Meadows,South Cascades,Dark Divide,4350.0,46.310323,-121.932595,0,0,0,0,0,0,1,0,0,0,0,0,easy,9
583,Hummocks Loop,South Cascades,Mount St. Helens,4200.0,46.28677257,-122.271899,0,0,0,0,0,0,1,1,0,0,1,0,strenuous,11
584,I-90 Trail,Puget Sound and Islands,Seattle-Tacoma Area,120.0,47.59265702,-122.2444566,0,0,1,0,0,0,0,1,0,0,0,0,moderate,12
585,Old Gib,Central Cascades,Leavenworth Area,6300.0,47.9728,-120.7908,0,0,0,0,0,1,0,0,0,0,0,0,strenuous,9
586,Windy Trail,South Cascades,Mount St. Helens,4300.0,46.2499,-122.1361,0,0,0,0,0,0,1,1,0,0,0,0,easy,5
587,Lower Pete's Creek,Olympic Peninsula,Pacific Coast,1500.0,47.45696719,-123.7326047,0,1,0,0,1,0,0,0,0,0,0,0,moderate,1
588,Devore Creek,Central Cascades,Entiat Mountains/Lake Chelan,6600.0,48.31623094,-120.6800509,0,0,0,0,0,0,1,1,1,0,1,0,very strenuous,4
589,Pacific Crest Trail (PCT) - Stampede Pass to Tacoma Pass,Snoqualmie Region,Snoqualmie Pass,4600.0,47.28327218,-121.3512307,0,0,0,0,1,1,1,1,0,0,0,0,very strenuous,5
590,John C. Shields Park (Minnehaha),Eastern Washington,Spokane Area/Coeur d'Alene,2380.0,47.68679397,-117.3276879,0,1,0,0,0,0,1,0,0,0,0,0,strenuous,9
591,Camp Sekani Park,Eastern Washington,Spokane Area/Coeur d'Alene,2380.0,47.6967653,-117.3091695,0,1,0,0,0,0,1,0,0,0,0,0,strenuous,9
592,Owl Mountain,Eastern Washington,Okanogan Highlands/Kettle River Range,4730.0,48.95623,-118.26325,0,0,0,0,1,1,1,1,1,1,1,0,moderately strenuous,0
593,Sweat Creek Basin Trail,Eastern Washington,Okanogan Highlands/Kettle River Range,5180.0,48.68036767,-118.9050454,0,0,0,0,1,1,1,1,0,1,0,1,very strenuous,0
594,Lake Wenatchee State Park,Central Cascades,Stevens Pass - East,1800.0,47.8075983,-120.7261848,0,1,1,0,0,1,1,1,0,1,0,1,easy,8
595,Four Springs Lake Preserve,Puget Sound and Islands,Bellingham Area,400.0,48.19056689,-122.5115919,0,0,1,0,0,0,0,0,0,1,0,0,easy,12
596,Box Canyon and Nickel Creek,Mount Rainier Area,SE - Cayuse Pass/Stevens Canyon,3400.0,46.76569144,-121.6350353,0,1,0,0,0,0,0,0,0,0,0,0,easy,13
597,Unicorn Peak,Mount Rainier Area,SE - Cayuse Pass/Stevens Canyon,6971.0,46.76775012,-121.7071266,0,0,1,0,0,0,0,1,1,0,0,1,strenuous,6
598,Stevens Canyon Waterfalls,Mount Rainier Area,SE - Cayuse Pass/Stevens Canyon,3750.0,46.76016667,-121.6390667,0,1,0,1,0,0,0,0,0,0,0,1,strenuous,2
599,Kelcema Lake,North Cascades,Mountain Loop Highway,3040.0,48.11539697,-121.5923882,0,0,1,0,0,0,0,0,0,1,0,0,easy,12
600,Saddle Rock,Central Washington,Wenatchee,2000.0,47.3967983,-120.329539,0,0,0,0,0,0,0,1,0,0,0,0,moderate,5
601,Cooper River Snowshoe,Snoqualmie Region,Salmon La Sac/Teanaway,2900.0,47.4041674,-121.0989234,0,0,0,0,0,0,0,0,0,0,0,0,moderate,9
602,Rampart Ridge Snowshoe,Mount Rainier Area,SW - Longmire/Paradise,4050.0,46.74984941,-121.813694,0,0,0,0,1,0,0,1,0,0,1,0,moderately strenuous,11
603,Bridle Trails State Park,Puget Sound and Islands,Seattle-Tacoma Area,525.0,47.65497266,-122.1842782,0,0,1,0,0,0,1,0,0,1,0,0,moderate,13
604,Leadbetter Point State Park - Dune Forest Loop,Southwest Washington,Long Beach Area,35.0,46.60701667,-124.0438167,1,0,0,0,0,1,0,0,0,1,0,0,easy,3
605,Port Angeles Waterfront Trail,Olympic Peninsula,Northern Coast,10.0,48.12004371,-123.4295216,1,0,0,0,0,0,0,0,0,1,0,0,easy,3
606,Wright Meadow,South Cascades,Dark Divide,2000.0,46.16571,-121.872048,0,0,0,0,0,0,0,0,0,1,0,0,moderately strenuous,9
607,Quinault National Recreation Trails,Olympic Peninsula,Pacific Coast,475.0,47.4599,-123.862133,0,0,0,1,0,1,0,0,0,0,0,0,moderate,2
608,Crawford State Park - Gardner Cave,Eastern Washington,Selkirk Range,2700.0,48.99463598,-117.3705482,0,0,0,0,0,0,0,0,0,0,0,0,easy,9
609,Umtanum Creek Falls,Central Washington,Yakima,2500.0,46.89918328,-120.6427574,0,0,0,1,0,0,1,1,0,1,0,0,easy,2
610,Bandera Mountain,Snoqualmie Region,North Bend Area,5240.0,47.42469257,-121.5835603,0,0,0,1,0,1,1,1,1,0,1,0,very strenuous,10
611,Icicle Ridge via Fourth of July Creek,Central Cascades,Leavenworth Area,7020.0,47.57826667,-120.79685,0,0,0,0,0,0,1,1,0,0,1,0,very strenuous,11
612,Cowen and Ravenna Parks,Puget Sound and Islands,Seattle-Tacoma Area,200.0,47.67203433,-122.314353,0,0,0,0,1,1,1,0,0,1,0,0,easy,7
613,Mount St. Helens - Worm Flows Route,South Cascades,Mount St. Helens,8364.0,46.13079952,-122.1696396,0,0,0,0,0,0,0,1,1,0,0,0,very strenuous,6
614,Melmont Ghost Town,Mount Rainier Area,NW - Carbon River/Mowich,1360.0,47.04199538,-122.0399094,0,1,0,0,1,0,1,1,0,1,1,1,easy,11
615,Cape Disappointment State Park - Coastal Forest Loop,Southwest Washington,Long Beach Area,140.0,46.28402474,-124.0545349,1,0,0,0,1,0,1,0,0,1,0,0,easy,3
616,Upper Icicle Creek,Central Cascades,Leavenworth Area,3200.0,47.61246667,-120.9499167,0,0,0,0,1,0,0,0,0,0,0,1,moderate,8
617,Vanson Peak,South Cascades,White Pass/Cowlitz River Valley,4948.0,46.429383,-122.154817,0,0,1,0,0,0,1,1,0,1,0,0,very strenuous,12
618,Trout Lake,Central Cascades,Leavenworth Area,4800.0,47.6059,-120.9170333,0,0,1,0,1,1,0,0,0,0,0,0,very strenuous,12
619,Goose Lake Plateau,Central Washington,Potholes Region,1000.0,46.93069502,-119.2432198,0,0,1,0,0,0,1,0,0,1,0,0,moderate,13
620,Frenchman Coulee,Central Washington,Potholes Region,1000.0,47.0258895,-119.9804624,0,1,0,1,0,0,1,0,0,0,0,0,easy,2
621,Billy Clapp Lake,Central Washington,Potholes Region,1500.0,47.45254359,-119.2530556,0,0,1,1,0,0,1,0,0,1,0,0,moderate,2
622,Little Spokane Wildlife Area: Rustler's Gulch - Holly Road Loop,Eastern Washington,Selkirk Range,2260.0,48.06081521,-117.4248791,0,0,0,0,0,1,1,0,0,1,0,0,moderately strenuous,0
623,Craft Island,Puget Sound and Islands,Seattle-Tacoma Area,80.0,48.35559313,-122.4597931,1,0,0,0,0,0,0,1,0,1,0,0,easy,3
624,Whiskey Dick Wildlife Area - Ridgeline Solar Trail,Central Washington,Yakima,3873.0,46.9606856,-120.0943768,0,1,0,0,0,0,0,1,1,0,0,0,easy,6
625,Whiskey Dick Wildlife Area,Central Washington,Yakima,3850.0,46.9606856,-120.0943768,0,0,0,0,0,0,1,1,1,1,0,0,strenuous,0
626,Duwamish Hill Preserve,Puget Sound and Islands,Seattle-Tacoma Area,143.0,47.50115578,-122.2855031,0,0,0,0,0,0,0,0,0,0,0,0,easy,9
627,Ardmore Park Trails,Puget Sound and Islands,Seattle-Tacoma Area,380.0,47.637062,-122.114778,0,0,0,0,0,1,1,0,0,1,0,0,easy,7
628,Pack Forest - Hugo Peak,Puget Sound and Islands,Seattle-Tacoma Area,1790.0,46.8402028,-122.294231,0,0,0,0,0,1,1,0,0,1,0,0,moderate,7
629,Wapaloosie Mountain,Eastern Washington,Okanogan Highlands/Kettle River Range,6850.0,48.6750689,-118.5004576,0,0,0,0,0,0,1,1,0,0,0,1,moderately strenuous,8
630,North Fork Silver Creek Trail,Eastern Washington,Selkirk Range,7308.0,48.90580279,-117.5197434,0,0,0,0,1,1,1,1,1,1,1,0,very strenuous,0
631,Flume Creek Trail,Eastern Washington,Selkirk Range,7310.0,48.92069451,-117.4171114,0,0,0,0,1,1,1,1,1,1,1,0,very strenuous,0
632,Deception Pass State Park - Hoypus Point,Puget Sound and Islands,Whidbey Island,400.0,48.39815195,-122.6259613,1,0,0,0,1,0,0,0,0,0,0,0,moderate,3
633,Kachess Lake,Snoqualmie Region,Snoqualmie Pass,2300.0,47.3587,-121.24605,0,0,1,0,1,0,0,0,0,0,0,0,easy,12
634,Frink Park,Puget Sound and Islands,Seattle-Tacoma Area,300.0,47.59931414,-122.2925974,0,1,0,0,0,1,1,0,0,0,0,0,easy,7
635,Nason Ridge,Central Cascades,Stevens Pass - East,6200.0,47.7881936,-120.7923264,0,0,0,0,0,0,0,0,1,0,1,0,very strenuous,4
636,Pacific Crest Trail (PCT) - Chinook Pass to Snoqualmie Pass,Mount Rainier Area,Chinook Pass - Hwy 410,6400.0,47.14150368,-121.3631503,0,0,1,0,1,0,0,1,0,0,0,0,very strenuous,12
637,Hardscrabble Creek,Central Cascades,Blewett Pass,5900.0,47.449,-120.834,0,1,0,0,0,1,0,1,0,0,1,1,strenuous,11
638,Pass Lake,North Cascades,Mountain Loop Highway,3900.0,48.12313234,-121.4488792,0,0,0,0,0,0,0,0,0,0,0,0,easy,9
639,Sunrise to Carbon River Traverse,Mount Rainier Area,NE - Sunrise/White River,6700.0,46.91450988,-121.6417408,0,1,1,1,0,0,1,1,0,0,1,1,very strenuous,10
640,Fourth Creek,Snoqualmie Region,Salmon La Sac/Teanaway,5600.0,47.3840115,-120.8733218,0,1,0,0,0,1,0,1,0,0,0,1,moderately strenuous,11
641,Wonderland Trail - Mowich to Longmire,Mount Rainier Area,NW - Carbon River/Mowich,6000.0,46.9326766,-121.8634146,0,1,1,1,1,1,1,1,0,1,1,1,very strenuous,10
642,Lake Whatcom Park - Chanterelle Trail,Puget Sound and Islands,Bellingham Area,1314.0,48.73021581,-122.3090167,0,0,0,0,1,1,0,1,1,0,0,0,moderate,6
643,Red Town Meadow &amp; Trails,Issaquah Alps,Cougar Mountain,800.0,47.53483333,-122.1288,0,0,0,1,0,1,1,0,0,1,0,0,easy,2
644,Burch Mountain - Eagle Rock,Central Washington,Wenatchee,4522.0,47.54696461,-120.3719822,0,0,0,0,0,0,0,1,0,0,1,0,moderate,11
645,Talus Loop,Snoqualmie Region,North Bend Area,2100.0,47.48806401,-121.7231727,0,1,0,0,1,0,0,1,0,0,0,0,moderately strenuous,1
646,Green Lantern Trail,Puget Sound and Islands,Seattle-Tacoma Area,463.0,47.88946892,-122.2070359,0,0,1,0,0,0,0,0,0,1,0,0,easy,12
647,Twin Lakes - Monte Cristo,North Cascades,Mountain Loop Highway,5300.0,48.02513287,-121.443728,0,1,1,0,1,0,0,1,0,0,1,1,very strenuous,8
648,Elowah and Upper McCord Creek Falls,Southwest Washington,Columbia River Gorge - OR,660.0,45.612367,-122.00435,0,0,0,1,0,0,0,1,0,0,0,0,moderate,2
649,Oneonta Gorge,Southwest Washington,Columbia River Gorge - OR,385.0,45.590833,-122.068467,0,0,0,1,1,0,1,1,0,0,0,0,moderate,2
650,Tolt-MacDonald Park,Puget Sound and Islands,Seattle-Tacoma Area,500.0,47.6441773,-121.9268831,0,1,0,0,0,0,0,0,0,0,0,0,moderate,13
651,Glacier Vista Snowshoe,Mount Rainier Area,SW - Longmire/Paradise,6330.0,46.78624656,-121.7360312,0,0,0,0,0,0,0,1,0,0,0,0,moderate,5
652,Lewis Creek Park,Issaquah Alps,Cougar Mountain,907.0,47.550727,-122.125709,0,1,0,0,0,0,1,0,0,1,0,0,easy,13
653,Ranger Hole - Interrorem Nature Trail,Olympic Peninsula,Hood Canal,515.0,47.68145,-122.994417,0,1,0,0,0,0,0,0,0,0,0,0,easy,13
654,Joseph Whidbey State Park,Puget Sound and Islands,Whidbey Island,60.0,48.30808939,-122.7129936,1,0,0,0,0,0,1,1,0,1,0,0,easy,3
655,Stegosaurus Butte,Snoqualmie Region,North Bend Area,2160.0,47.5474941,-121.5409613,0,1,0,0,0,0,0,1,1,0,1,0,moderate,4
656,Stagman Ridge - The Bumper,South Cascades,Mount Adams Area,5900.0,46.14046667,-121.5977333,0,0,0,0,0,0,1,1,0,1,1,0,strenuous,11
657,South Point Lookout,South Cascades,White Pass/Cowlitz River Valley,5980.0,46.52541667,-121.6673833,0,0,0,0,1,0,0,1,1,0,0,0,very strenuous,6
658,Stirrup Lake,Snoqualmie Region,Salmon La Sac/Teanaway,3586.0,47.30403771,-121.4020961,0,0,1,0,0,1,1,1,0,1,0,0,easy,12
659,Sleeping Beauty Peak,South Cascades,Mount Adams Area,4900.0,46.08515,-121.6575833,0,0,0,0,0,0,0,1,1,0,1,0,moderate,4
660,South Fork Silver Creek Trail to Gunsight Pass,Eastern Washington,Selkirk Range,5600.0,48.91148313,-117.5009723,0,0,0,0,1,1,1,1,0,1,0,0,very strenuous,0
661,Silver Star Mountain,Southwest Washington,Lewis River Region,4390.0,45.76818333,-122.2428333,0,0,0,0,0,1,1,1,1,0,1,0,moderate,4
662,Similkameen Trail,Eastern Washington,Okanogan Highlands/Kettle River Range,940.0,48.94750033,-119.4593346,0,1,0,1,0,1,1,1,0,1,0,0,easy,2
663,North Centennial Trail (Snohomish),Puget Sound and Islands,Bellingham Area,171.0,48.16682852,-122.1048594,0,0,0,0,0,1,0,0,0,0,0,0,easy,7
664,Skyline,Olympic Peninsula,Pacific Coast,5700.0,47.57548347,-123.6477757,0,0,1,0,0,0,1,1,1,1,0,1,very strenuous,6
665,Snagtooth Mountain,Southwest Washington,Lewis River Region,5000.0,46.24805,-121.81545,0,0,0,0,0,0,0,1,0,0,0,0,very strenuous,5
666,Bear Lake,Southwest Washington,Columbia River Gorge - OR,4100.0,45.636267,-121.7426,0,0,1,0,0,0,1,1,0,0,0,0,easy,12
667,Pyramid Peak,Mount Rainier Area,Chinook Pass - Hwy 410,5715.0,47.1157,-121.406417,0,0,0,0,1,0,1,0,0,0,0,0,moderately strenuous,1
668,Maple Creek Loop Trail,North Cascades,Mount Baker Area,850.0,48.92678882,-122.0793164,0,1,0,1,0,1,1,0,0,0,0,0,easy,2
669,Aldrich Butte,Southwest Washington,Columbia River Gorge - WA,3400.0,45.6554,-121.9607,0,1,0,0,0,0,1,1,0,0,0,0,moderate,13
670,Lily Lake,South Cascades,White Pass/Cowlitz River Valley,3660.0,46.65553333,-121.4861833,0,0,1,0,1,0,1,0,0,1,0,0,easy,1
671,Badger Mountain - Sagebrush Trail,Central Washington,Tri-Cities,1200.0,46.23846289,-119.3061376,0,0,0,0,0,0,1,0,0,1,0,0,easy,13
672,Badger Mountain - Skyline Trail,Central Washington,Tri-Cities,1500.0,46.2421,-119.3424,0,0,0,0,0,0,1,1,1,1,1,0,moderately strenuous,4
673,Snoqualmie Ridge Trail  Deep Creek Trail,Snoqualmie Region,North Bend Area,840.0,47.54217883,-121.8775694,0,1,0,0,0,0,0,1,0,0,0,0,moderate,13
674,Sorcery Mountain,Snoqualmie Region,North Bend Area,5273.0,47.535271,-121.410365,0,1,1,0,0,0,0,1,1,0,0,0,very strenuous,6
675,Yost Park,Puget Sound and Islands,Seattle-Tacoma Area,360.0,47.80849991,-122.360884,0,0,0,0,0,1,1,0,0,1,0,0,easy,7
676,Clear Creek Trail,Olympic Peninsula,Kitsap Peninsula,58.0,47.6681115,-122.6815788,0,1,0,0,0,0,1,0,0,1,0,0,easy,13
677,Phantom Lake Loop,Puget Sound and Islands,Seattle-Tacoma Area,370.0,47.59242458,-122.1310401,0,0,1,0,0,1,0,0,0,0,0,0,easy,7
678,Cornell Butte,Eastern Washington,Okanogan Highlands/Kettle River Range,5088.0,48.5417626,-118.8926678,0,0,0,0,0,1,0,1,1,0,0,0,moderate,0
679,Fauntleroy Park,Puget Sound and Islands,Seattle-Tacoma Area,360.0,47.52151909,-122.3851204,0,0,0,0,1,1,1,0,0,1,0,0,easy,7
680,Blue Horse Trail,South Cascades,Mount St. Helens,4000.0,46.16905647,-122.2601207,0,0,1,0,0,0,1,1,0,1,0,1,strenuous,8
681,Miner's Corner,Puget Sound and Islands,Seattle-Tacoma Area,410.0,47.7892954,-122.1729442,0,0,0,0,0,1,1,0,0,1,0,0,easy,7
682,Columbia Springs,Southwest Washington,Vancouver Area,20.0,45.59935337,-122.5454682,0,0,1,0,0,0,1,0,0,1,0,0,easy,12
683,Peabody Creek Trail,Olympic Peninsula,Northern Coast,1100.0,48.099265,-123.426003,0,1,0,0,0,0,1,0,0,0,0,0,moderate,13
684,Upper Suiattle River,North Cascades,Mountain Loop Highway,4000.0,48.25400692,-121.2600472,0,1,0,0,1,0,0,0,0,0,0,0,very strenuous,1
685,Barnum Point,Puget Sound and Islands,Whidbey Island,130.0,48.19998692,-122.456274,1,0,0,0,0,1,1,1,0,1,0,0,easy,3
686,Harold Engles Memorial Cedars,North Cascades,Mountain Loop Highway,1800.0,48.09244185,-121.3302183,0,0,0,0,1,1,0,0,0,0,0,0,easy,7
687,Dry Creek,South Cascades,Mount Adams Area,1500.0,45.8819,-121.980067,0,1,0,0,0,0,1,0,0,1,0,1,moderate,1
688,Copper Ridge,North Cascades,Mount Baker Area,6260.0,48.91013257,-121.5921736,0,1,1,0,0,0,1,1,0,0,1,1,very strenuous,8
689,Chilliwack River,North Cascades,Mount Baker Area,4440.0,48.91011846,-121.5921307,0,1,0,0,0,0,0,0,0,1,1,1,very strenuous,11
690,Cape Flattery,Olympic Peninsula,Pacific Coast,250.0,48.38441667,-124.7156667,1,0,0,0,0,0,0,0,0,1,0,0,easy,3
691,Bald Eagle Mountain,Central Cascades,Stevens Pass - West,5800.0,48.00125,-121.2940333,0,1,0,1,0,0,1,1,0,0,1,0,very strenuous,10
692,Chief Joseph Wildlife Area - 4-O Ranch,Eastern Washington,Palouse and Blue Mountains,3000.0,46.04073979,-117.2911549,0,1,0,0,0,0,1,0,0,1,0,0,moderately strenuous,13
693,White Pass - Pilot Ridge Loop,North Cascades,Mountain Loop Highway,6360.0,48.05337645,-121.2768745,0,1,1,1,1,1,1,1,1,1,1,1,very strenuous,10
694,Sunshine Trail,South Cascades,Mount Adams Area,3400.0,45.87471225,-121.9846344,0,0,0,0,0,0,0,0,0,0,0,0,moderate,9
695,Siouxon Creek,Southwest Washington,Lewis River Region,1697.0,45.94065,-122.229433,0,1,0,1,0,0,0,0,0,0,0,0,moderately strenuous,2
696,Sloan Peak,North Cascades,Mountain Loop Highway,7835.0,48.08630786,-121.3084084,0,1,0,1,0,1,0,1,0,0,0,0,very strenuous,2
697,Red Mountain Lookout,North Cascades,Mountain Loop Highway,2800.0,48.05826244,-121.2879467,0,0,0,0,1,0,0,1,1,1,0,0,moderate,6
698,North Coast Route,Olympic Peninsula,Pacific Coast,200.0,48.25877869,-124.6828401,1,1,1,0,1,0,0,0,0,1,0,1,strenuous,3
699,Beezley Hills Preserve,Central Washington,Grand Coulee,1750.0,47.3186,-119.7998,0,0,0,0,0,0,1,1,0,1,0,0,easy,5
700,Indian Dan State Wildlife Refuge,North Cascades,Methow/Sawtooth,1700.0,48.11172943,-119.8670626,0,0,1,0,0,0,0,1,0,1,0,0,easy,12
701,Mount Washington,Snoqualmie Region,North Bend Area,4450.0,47.44198333,-121.6722,0,0,0,0,1,0,1,1,1,0,0,0,very strenuous,6
702,Melton Creek Trail,Eastern Washington,Palouse and Blue Mountains,6200.0,46.11915828,-117.5367367,0,1,0,0,0,0,0,0,1,0,0,0,very strenuous,6
703,Wenatchee Guard Station,Eastern Washington,Palouse and Blue Mountains,5480.0,46.1217565,-117.3795779,0,0,0,0,0,1,1,1,1,1,1,0,strenuous,0
704,Panjab Trail,Eastern Washington,Palouse and Blue Mountains,5600.0,46.1716201,-117.7212063,0,1,0,0,0,0,1,1,0,1,1,1,very strenuous,0
705,Mount Misery Loop,Eastern Washington,Palouse and Blue Mountains,6387.0,46.11915828,-117.5367367,0,0,0,0,0,1,1,1,0,1,1,0,very strenuous,0
706,Bob Heirman Wildlife Preserve,Puget Sound and Islands,Seattle-Tacoma Area,92.0,47.86152141,-122.0932245,0,1,0,0,0,0,1,0,0,1,0,0,easy,13
707,Saint Edward State Park,Puget Sound and Islands,Seattle-Tacoma Area,400.0,47.73285815,-122.2582626,0,0,1,0,0,1,1,0,0,1,0,0,easy,7
708,Capitol State Forest - Porter Trail,Olympic Peninsula,Olympia,2050.0,46.97740352,-123.257469,0,0,0,0,0,0,1,0,0,1,0,0,moderately strenuous,13
709,Capitol State Forest - Bob Bammert Grove Loop,Olympic Peninsula,Olympia,560.0,46.896891,-123.095249,0,0,0,0,1,1,0,0,0,0,0,0,easy,7
710,Mount Spokane - Trail 110/140 Loop,Eastern Washington,Spokane Area/Coeur d'Alene,5000.0,47.885082,-117.083312,0,0,0,0,0,0,0,0,0,0,0,0,moderately strenuous,9
711,Black Hole Falls,South Cascades,Dark Divide,1532.0,45.97899,-122.25488,0,1,0,1,0,0,0,1,1,0,0,0,very strenuous,2
712,Narada Falls,Mount Rainier Area,SW - Longmire/Paradise,4650.0,46.77522,-121.74604,0,1,0,1,0,0,0,0,0,0,0,0,easy,2
713,Mount Spokane State Park - Mount Kit Carson Trail,Eastern Washington,Spokane Area/Coeur d'Alene,5282.0,47.8882418,-117.1248991,0,0,0,0,0,1,1,1,1,1,0,0,strenuous,0
714,Golden Gardens Park,Puget Sound and Islands,Seattle-Tacoma Area,300.0,47.69055938,-122.3983839,1,0,0,0,0,1,0,1,0,1,0,0,easy,3
715,Mud Mountain Dam  Vista Trail,Mount Rainier Area,Chinook Pass - Hwy 410,1300.0,47.1431721,-121.9331306,0,1,0,0,0,1,0,1,0,0,0,0,easy,7
716,South Fork Hoh River - Big Flat,Olympic Peninsula,Pacific Coast,850.0,47.79928333,-123.95445,0,1,0,0,1,1,0,1,0,1,0,1,easy,1
717,Seaquest State Park - Silver Lake,South Cascades,Mount St. Helens,4390.0,46.29592751,-122.8176351,0,0,1,0,1,0,1,1,0,1,0,0,easy,1
718,Capitol State Forest - Sherman Creek Loop,Olympic Peninsula,Olympia,1150.0,46.93857209,-123.1300449,0,1,0,0,1,0,0,0,0,0,0,0,moderately strenuous,1
719,Shellrock Lake,South Cascades,White Pass/Cowlitz River Valley,5930.0,46.64384498,-121.3800685,0,0,1,0,0,0,0,0,0,0,0,0,strenuous,12
720,Fort Columbia State Park - Scarborough Hill,Southwest Washington,Long Beach Area,767.0,46.25297585,-123.9181423,0,1,0,0,1,0,0,1,0,0,0,0,moderate,1
721,Capitol State Forest - Rock Candy Mountain,Olympic Peninsula,Olympia,1500.0,47.031934,-123.093843,0,0,0,0,1,0,0,1,1,1,0,0,moderately strenuous,6
722,Riverside State Park - Bowl &amp; Pitcher,Eastern Washington,Spokane Area/Coeur d'Alene,2165.0,47.6962164,-117.4941444,0,1,0,0,0,0,0,0,0,0,0,0,easy,9
723,Coast Trail: Mount Maguire Loop,Puget Sound and Islands,San Juan Islands,879.0,48.3534,-123.702,1,0,0,0,0,0,0,0,1,1,1,0,very strenuous,3
724,Goldstream Provincial Park: Grand Loop,Puget Sound and Islands,San Juan Islands,510.0,48.479883,-123.548317,0,0,0,1,1,0,1,0,0,0,0,0,moderately strenuous,2
725,Roosevelt Grove of Ancient Cedars,Eastern Washington,Selkirk Range,3600.0,48.7665,-117.062383,0,0,0,1,1,1,0,0,0,0,0,0,easy,2
726,Beacon Rock State Park - Hamilton Mountain,Southwest Washington,Columbia River Gorge - WA,2400.0,45.6325,-122.02,0,0,0,1,1,1,1,1,1,1,1,0,strenuous,10
727,Guillemot Cove,Olympic Peninsula,Kitsap Peninsula,360.0,47.61597092,-122.9085159,1,1,0,0,1,0,0,1,0,1,0,0,easy,3
728,Greider Lakes,Central Cascades,Stevens Pass - West,2930.0,47.974717,-121.57955,0,0,1,0,1,0,0,1,0,0,0,1,strenuous,8
729,Greenwater Trail to Lost Lakes,Mount Rainier Area,Chinook Pass - Hwy 410,5700.0,47.1059,-121.4751,0,1,1,0,1,0,0,0,0,1,0,1,very strenuous,8
730,Green Mountain,North Cascades,Mountain Loop Highway,6500.0,48.26801207,-121.2370813,0,0,0,0,0,1,1,1,1,1,1,1,very strenuous,4
731,Slab Camp Creek and Gray Wolf River,Olympic Peninsula,Hood Canal,2540.0,47.96543333,-123.1938,0,1,0,0,1,0,1,0,0,0,0,1,moderately strenuous,1
732,Graves Creek,Olympic Peninsula,Pacific Coast,1880.0,47.57283333,-123.56985,0,1,0,0,1,0,0,0,0,1,0,0,moderately strenuous,1
733,Grassy Knoll,Southwest Washington,Columbia River Gorge - WA,3648.0,45.797633,-121.741167,0,0,0,0,0,1,1,1,1,0,0,0,moderate,6
734,Granite Mountain,Snoqualmie Region,Snoqualmie Pass,5629.0,47.3979,-121.48605,0,0,0,0,0,1,1,1,1,0,0,0,very strenuous,6
735,Granite Creek Trail to Granite Lakes,Snoqualmie Region,North Bend Area,3070.0,47.49203683,-121.6399384,0,1,0,1,1,1,0,1,0,1,0,0,strenuous,2
736,Gotchen Creek,South Cascades,Mount Adams Area,4600.0,46.12106096,-121.5148401,0,1,0,0,0,0,0,1,0,0,1,0,moderately strenuous,11
737,Deception Pass State Park - Goose Rock,Puget Sound and Islands,Whidbey Island,484.0,48.40338333,-122.6474667,1,0,0,0,1,0,1,1,0,0,0,0,moderate,3
738,Gobblers Knob,Mount Rainier Area,SW - Longmire/Paradise,5485.0,46.77895087,-121.8843766,0,0,1,0,1,0,1,1,0,0,1,1,very strenuous,8
739,Goat Mountain,North Cascades,Mount Baker Area,5600.0,48.8977,-121.6455,0,0,0,0,1,0,1,1,1,0,1,0,very strenuous,4
740,Lodge Lake,Snoqualmie Region,Snoqualmie Pass,3500.0,47.427333,-121.420433,0,0,1,0,0,0,0,0,0,0,0,0,moderate,12
741,Carne Mountain,Central Cascades,Stevens Pass - East,7085.0,48.08291667,-120.8349667,0,0,0,0,0,1,1,1,1,0,0,0,very strenuous,0
742,White Pine Creek,Central Cascades,Stevens Pass - East,3200.0,47.77063333,-120.9272,0,1,0,0,1,0,0,1,0,0,0,0,moderate,1
743,Steamboat Rock,Central Washington,Grand Coulee,2250.0,47.86352872,-119.1296009,0,0,0,0,0,0,1,1,0,1,0,0,moderate,5
744,Snoqualmie Falls,Snoqualmie Region,North Bend Area,450.0,47.54372714,-121.8369707,0,1,0,1,0,1,0,0,0,0,0,0,easy,2
745,Goat Lake,North Cascades,Mountain Loop Highway,3161.0,48.05366667,-121.4113333,0,1,1,1,1,0,0,0,0,0,0,1,strenuous,10
746,Goat Creek,South Cascades,Mount St. Helens,2400.0,46.43047935,-122.1525447,0,1,0,1,1,0,0,0,0,0,0,0,moderate,2
747,Franklin Falls,Snoqualmie Region,Snoqualmie Pass,2600.0,47.4131078,-121.4427692,0,1,0,1,0,0,0,0,0,0,0,0,easy,2
748,Fragrance Lake,Puget Sound and Islands,Bellingham Area,1050.0,48.65338333,-122.4901833,0,0,1,0,1,0,0,1,0,0,0,0,moderately strenuous,12
749,Fort Casey State Park,Puget Sound and Islands,Bellingham Area,200.0,48.17249666,-122.6829529,1,0,0,0,0,0,0,0,0,0,0,1,easy,3
750,Excelsior Pass via Nooksack River,North Cascades,Mount Baker Area,5400.0,48.90957026,-121.8017507,0,0,0,0,0,0,0,1,1,0,1,0,very strenuous,4
751,Entiat River,Central Cascades,Entiat Mountains/Lake Chelan,5760.0,48.02460567,-120.6508255,0,1,1,1,0,1,1,1,0,1,0,1,very strenuous,10
752,Elwha To Hurricane Hill,Olympic Peninsula,Northern Coast,5650.0,48.01375507,-123.58778,0,1,0,0,0,0,1,1,0,0,1,0,very strenuous,11
753,Emerald Park,Central Cascades,Entiat Mountains/Lake Chelan,6700.0,48.2002298,-120.5914623,0,0,1,0,0,0,1,1,0,0,0,0,very strenuous,12
754,Park Butte,North Cascades,Mount Baker Area,5450.0,48.70673333,-121.8122333,0,1,1,1,0,1,1,1,1,1,0,0,strenuous,10
755,Green River Natural Area - Potter's Trail,Puget Sound and Islands,Seattle-Tacoma Area,500.0,47.2763811,-122.0893598,0,1,0,0,0,1,0,0,0,1,0,0,moderate,7
756,Notch Pass,Olympic Peninsula,Hood Canal,2500.0,47.82624818,-122.9388537,0,1,0,0,0,1,0,0,0,0,1,0,very strenuous,7
757,North Fork Sullivan Creek,Eastern Washington,Selkirk Range,6600.0,48.854104,-117.287608,0,0,0,0,0,1,0,1,1,0,1,0,very strenuous,0
758,Newberry Hill Heritage Park,Olympic Peninsula,Kitsap Peninsula,350.0,47.6345401,-122.7548361,0,1,1,0,1,0,0,0,0,1,0,0,moderate,1
759,Mount Walker,Olympic Peninsula,Hood Canal,2804.0,47.7756,-122.9137333,0,0,0,0,0,0,1,1,1,1,0,0,moderately strenuous,0
